{
"type": "FeatureCollection",
"name": "KML_Sample_Min_v3",
"crs": { "type": "name", "properties": { "name": "urn:ogc:def:crs:OGC:1.3:CRS84" } },
"features": [
{ "type": "Feature", "properties": { "SITENAME": "MANOLO", "BCF-Sector": "MANOLO-2", "Solution Type": "MACRO", "Site Type": "MACRO", "Blended Congestion": "AMBER", "Lat": 8.365562, "Lon": 124.861567, "Town": "BUKIDNON", "Province": "MANOLO FORTICH", "ACL": "50", "Azimuth": "40", "Beam Width": 40, "Length": 200 }, "geometry": { "type": "Point", "coordinates": [ 124.861567, 8.365562 ] } },
{ "type": "Feature", "properties": { "SITENAME": "MARAMA", "BCF-Sector": "MARAMA-3", "Solution Type": "MACRO", "Site Type": "MACRO", "Blended Congestion": "AMBER", "Lat": 7.757818, "Lon": 125.004897, "Town": "BUKIDNON", "Province": "MARAMAG", "ACL": "49", "Azimuth": "315", "Beam Width": 40, "Length": 200 }, "geometry": { "type": "Point", "coordinates": [ 125.004897, 7.757818 ] } },
{ "type": "Feature", "properties": { "SITENAME": "POB1ISBELABAS", "BCF-Sector": "POB1ISBELABAS-1", "Solution Type": "MACRO", "Site Type": "MACRO", "Blended Congestion": "AMBER", "Lat": 6.70508, "Lon": 121.971, "Town": "BASILAN", "Province": "ISABELA CITY", "ACL": "32", "Azimuth": "350", "Beam Width": 40, "Length": 200 }, "geometry": { "type": "Point", "coordinates": [ 121.971, 6.70508 ] } },
{ "type": "Feature", "properties": { "SITENAME": "CABANG", "BCF-Sector": "CABANG-3", "Solution Type": "MACRO", "Site Type": "MACRO", "Blended Congestion": "AMBER", "Lat": 8.076636, "Lon": 125.297374, "Town": "BUKIDNON", "Province": "CABANGLASAN", "ACL": "45", "Azimuth": "220", "Beam Width": 40, "Length": 200 }, "geometry": { "type": "Point", "coordinates": [ 125.297374, 8.076636 ] } },
{ "type": "Feature", "properties": { "SITENAME": "HILLMANBRGY3DAPASDN", "BCF-Sector": "HILLMANBRGY3DAPASDN-2", "Solution Type": "MACRO", "Site Type": "MACRO", "Blended Congestion": "AMBER", "Lat": 9.761764, "Lon": 126.053645, "Town": "SURIGAO DEL NORTE", "Province": "DAPA", "ACL": "28", "Azimuth": "175", "Beam Width": 40, "Length": 200 }, "geometry": { "type": "Point", "coordinates": [ 126.053645, 9.761764 ] } },
{ "type": "Feature", "properties": { "SITENAME": "LABUAN", "BCF-Sector": "LABUAN-1", "Solution Type": "MACRO", "Site Type": "MACRO", "Blended Congestion": "GREEN", "Lat": 7.097856, "Lon": 121.903092, "Town": "ZAMBOANGA DEL SUR", "Province": "ZAMBOANGA CITY", "ACL": "39", "Azimuth": "10", "Beam Width": 40, "Length": 200 }, "geometry": { "type": "Point", "coordinates": [ 121.903092, 7.097856 ] } },
{ "type": "Feature", "properties": { "SITENAME": "CAWA2", "BCF-Sector": "CAWA2-3", "Solution Type": "MACRO", "Site Type": "MACRO", "Blended Congestion": "AMBER", "Lat": 6.909186, "Lon": 122.063608, "Town": "ZAMBOANGA DEL SUR", "Province": "ZAMBOANGA CITY", "ACL": "27", "Azimuth": "300", "Beam Width": 40, "Length": 200 }, "geometry": { "type": "Point", "coordinates": [ 122.063608, 6.909186 ] } },
{ "type": "Feature", "properties": { "SITENAME": "GUSU", "BCF-Sector": "GUSU-2", "Solution Type": "MACRO", "Site Type": "MACRO", "Blended Congestion": "AMBER", "Lat": 6.919461, "Lon": 122.05112, "Town": "ZAMBOANGA DEL SUR", "Province": "ZAMBOANGA CITY", "ACL": "36", "Azimuth": "70", "Beam Width": 40, "Length": 200 }, "geometry": { "type": "Point", "coordinates": [ 122.05112, 6.919461 ] } },
{ "type": "Feature", "properties": { "SITENAME": "GUSU", "BCF-Sector": "GUSU-3", "Solution Type": "MACRO", "Site Type": "MACRO", "Blended Congestion": "AMBER", "Lat": 6.919461, "Lon": 122.05112, "Town": "ZAMBOANGA DEL SUR", "Province": "ZAMBOANGA CITY", "ACL": "36", "Azimuth": "225", "Beam Width": 40, "Length": 200 }, "geometry": { "type": "Point", "coordinates": [ 122.05112, 6.919461 ] } },
{ "type": "Feature", "properties": { "SITENAME": "LANTAKA", "BCF-Sector": "LANTAKA-2", "Solution Type": "MACRO", "Site Type": "MACRO", "Blended Congestion": "GREEN", "Lat": 6.902793, "Lon": 122.07832, "Town": "ZAMBOANGA DEL SUR", "Province": "ZAMBOANGA CITY", "ACL": "24", "Azimuth": "300", "Beam Width": 40, "Length": 200 }, "geometry": { "type": "Point", "coordinates": [ 122.07832, 6.902793 ] } },
{ "type": "Feature", "properties": { "SITENAME": "TALON2ZDS", "BCF-Sector": "TALON2ZDS-2", "Solution Type": "MACRO", "Site Type": "MACRO", "Blended Congestion": "AMBER", "Lat": 6.910158, "Lon": 122.115745, "Town": "ZAMBOANGA DEL SUR", "Province": "ZAMBOANGA CITY", "ACL": "38", "Azimuth": "170", "Beam Width": 40, "Length": 200 }, "geometry": { "type": "Point", "coordinates": [ 122.115745, 6.910158 ] } },
{ "type": "Feature", "properties": { "SITENAME": "TETUAN", "BCF-Sector": "TETUAN-1", "Solution Type": "MACRO", "Site Type": "MACRO", "Blended Congestion": "GREEN", "Lat": 6.918393, "Lon": 122.0855, "Town": "ZAMBOANGA DEL SUR", "Province": "ZAMBOANGA CITY", "ACL": "36", "Azimuth": "80", "Beam Width": 40, "Length": 200 }, "geometry": { "type": "Point", "coordinates": [ 122.0855, 6.918393 ] } },
{ "type": "Feature", "properties": { "SITENAME": "BAUYA", "BCF-Sector": "BAUYA-2", "Solution Type": "MACRO", "Site Type": "MACRO", "Blended Congestion": "AMBER", "Lat": 7.729833, "Lon": 123.784202, "Town": "LANAO DEL NORTE", "Province": "SULTAN NAGA DIMAPORO", "ACL": "39", "Azimuth": "140", "Beam Width": 40, "Length": 200 }, "geometry": { "type": "Point", "coordinates": [ 123.784202, 7.729833 ] } },
{ "type": "Feature", "properties": { "SITENAME": "HILLMANBRGY3DAPASDN", "BCF-Sector": "HILLMANBRGY3DAPASDN-3", "Solution Type": "MACRO", "Site Type": "MACRO", "Blended Congestion": "AMBER", "Lat": 9.761764, "Lon": 126.053645, "Town": "SURIGAO DEL NORTE", "Province": "DAPA", "ACL": "28", "Azimuth": "270", "Beam Width": 40, "Length": 200 }, "geometry": { "type": "Point", "coordinates": [ 126.053645, 9.761764 ] } },
{ "type": "Feature", "properties": { "SITENAME": "LABASO", "BCF-Sector": "LABASO-2", "Solution Type": "MACRO", "Site Type": "MACRO", "Blended Congestion": "GREEN", "Lat": 8.068342, "Lon": 122.521832, "Town": "ZAMBOANGA DEL NORTE", "Province": "LABASON", "ACL": "41", "Azimuth": "190", "Beam Width": 40, "Length": 200 }, "geometry": { "type": "Point", "coordinates": [ 122.521832, 8.068342 ] } },
{ "type": "Feature", "properties": { "SITENAME": "LABASO", "BCF-Sector": "LABASO-3", "Solution Type": "MACRO", "Site Type": "MACRO", "Blended Congestion": "AMBER", "Lat": 8.068342, "Lon": 122.521832, "Town": "ZAMBOANGA DEL NORTE", "Province": "LABASON", "ACL": "41", "Azimuth": "265", "Beam Width": 40, "Length": 200 }, "geometry": { "type": "Point", "coordinates": [ 122.521832, 8.068342 ] } },
{ "type": "Feature", "properties": { "SITENAME": "DIPOLO", "BCF-Sector": "DIPOLO-3", "Solution Type": "MACRO", "Site Type": "MACRO", "Blended Congestion": "AMBER", "Lat": 8.58385, "Lon": 123.34319, "Town": "ZAMBOANGA DEL NORTE", "Province": "DIPOLOG CITY (CAPITAL)", "ACL": "39", "Azimuth": "190", "Beam Width": 40, "Length": 200 }, "geometry": { "type": "Point", "coordinates": [ 123.34319, 8.58385 ] } },
{ "type": "Feature", "properties": { "SITENAME": "GRANDE", "BCF-Sector": "GRANDE-2", "Solution Type": "MACRO", "Site Type": "MACRO", "Blended Congestion": "GREEN", "Lat": 6.913585, "Lon": 122.052805, "Town": "ZAMBOANGA DEL SUR", "Province": "ZAMBOANGA CITY", "ACL": "12", "Azimuth": "150", "Beam Width": 40, "Length": 200 }, "geometry": { "type": "Point", "coordinates": [ 122.052805, 6.913585 ] } },
{ "type": "Feature", "properties": { "SITENAME": "GUSU", "BCF-Sector": "GUSU-1", "Solution Type": "MACRO", "Site Type": "MACRO", "Blended Congestion": "GREEN", "Lat": 6.919461, "Lon": 122.05112, "Town": "ZAMBOANGA DEL SUR", "Province": "ZAMBOANGA CITY", "ACL": "36", "Azimuth": "330", "Beam Width": 40, "Length": 200 }, "geometry": { "type": "Point", "coordinates": [ 122.05112, 6.919461 ] } },
{ "type": "Feature", "properties": { "SITENAME": "MANOLO", "BCF-Sector": "MANOLO-1", "Solution Type": "MACRO", "Site Type": "MACRO", "Blended Congestion": "AMBER", "Lat": 8.365562, "Lon": 124.861567, "Town": "BUKIDNON", "Province": "MANOLO FORTICH", "ACL": "50", "Azimuth": "300", "Beam Width": 40, "Length": 200 }, "geometry": { "type": "Point", "coordinates": [ 124.861567, 8.365562 ] } },
{ "type": "Feature", "properties": { "SITENAME": "SANTONGENSAN", "BCF-Sector": "SANTONGENSAN-2", "Solution Type": "MACRO", "Site Type": "MACRO", "Blended Congestion": "AMBER", "Lat": 6.133701, "Lon": 125.130657, "Town": "SOUTH COTABATO", "Province": "GENERAL SANTOS CITY", "ACL": "40", "Azimuth": "130", "Beam Width": 40, "Length": 200 }, "geometry": { "type": "Point", "coordinates": [ 125.130657, 6.133701 ] } },
{ "type": "Feature", "properties": { "SITENAME": "SENARESTAGANASDN", "BCF-Sector": "SENARESTAGANASDN-3", "Solution Type": "MACRO", "Site Type": "MACRO", "Blended Congestion": "AMBER", "Lat": 9.693443, "Lon": 125.582851, "Town": "SURIGAO DEL NORTE", "Province": "TAGANA-AN", "ACL": "48", "Azimuth": "210", "Beam Width": 40, "Length": 200 }, "geometry": { "type": "Point", "coordinates": [ 125.582851, 9.693443 ] } },
{ "type": "Feature", "properties": { "SITENAME": "TAGLATAWAN", "BCF-Sector": "TAGLATAWAN-2", "Solution Type": "MACRO", "Site Type": "MACRO", "Blended Congestion": "AMBER", "Lat": 8.714096, "Lon": 125.759478, "Town": "AGUSAN DEL SUR", "Province": "BAYUGAN CITY", "ACL": "40", "Azimuth": "185", "Beam Width": 40, "Length": 200 }, "geometry": { "type": "Point", "coordinates": [ 125.759478, 8.714096 ] } },
{ "type": "Feature", "properties": { "SITENAME": "TUNGAW", "BCF-Sector": "TUNGAW-2", "Solution Type": "MACRO", "Site Type": "MACRO", "Blended Congestion": "AMBER", "Lat": 7.601745, "Lon": 122.420672, "Town": "ZAMBOANGA SIBUGAY", "Province": "TUNGAWAN", "ACL": "39", "Azimuth": "115", "Beam Width": 40, "Length": 200 }, "geometry": { "type": "Point", "coordinates": [ 122.420672, 7.601745 ] } },
{ "type": "Feature", "properties": { "SITENAME": "SMCDOOD", "BCF-Sector": "SMCDOOD-2", "Solution Type": "MACRO", "Site Type": "MACRO", "Blended Congestion": "GREEN", "Lat": 8.45699, "Lon": 124.622435, "Town": "MISAMIS ORIENTAL", "Province": "CAGAYAN DE ORO CITY (CAPITAL)", "ACL": "17", "Azimuth": "150", "Beam Width": 40, "Length": 200 }, "geometry": { "type": "Point", "coordinates": [ 124.622435, 8.45699 ] } },
{ "type": "Feature", "properties": { "SITENAME": "TCPHT1BULUACDOMOR", "BCF-Sector": "TCPHT1BULUACDOMOR-1", "Solution Type": "MACRO", "Site Type": "MACRO", "Blended Congestion": "GREEN", "Lat": 8.505229, "Lon": 124.611192, "Town": "MISAMIS ORIENTAL", "Province": "CAGAYAN DE ORO CITY (CAPITAL)", "ACL": "36", "Azimuth": "320", "Beam Width": 40, "Length": 200 }, "geometry": { "type": "Point", "coordinates": [ 124.611192, 8.505229 ] } },
{ "type": "Feature", "properties": { "SITENAME": "CAMPBAUTISTA", "BCF-Sector": "CAMPBAUTISTA-3", "Solution Type": "LEGO", "Site Type": "MACRO", "Blended Congestion": "GREEN", "Lat": 6.056303, "Lon": 121.011509, "Town": "SULU", "Province": "JOLO (CAPITAL)", "ACL": "40", "Azimuth": "240", "Beam Width": 40, "Length": 200 }, "geometry": { "type": "Point", "coordinates": [ 121.011509, 6.056303 ] } },
{ "type": "Feature", "properties": { "SITENAME": "RJOSIA", "BCF-Sector": "RJOSIA-1", "Solution Type": "MACRO", "Site Type": "MACRO", "Blended Congestion": "AMBER", "Lat": 8.248121, "Lon": 123.070233, "Town": "ZAMBOANGA DEL NORTE", "Province": "SIAYAN", "ACL": "62", "Azimuth": "5", "Beam Width": 40, "Length": 200 }, "geometry": { "type": "Point", "coordinates": [ 123.070233, 8.248121 ] } },
{ "type": "Feature", "properties": { "SITENAME": "TUKURA", "BCF-Sector": "TUKURA-2", "Solution Type": "MACRO", "Site Type": "MACRO", "Blended Congestion": "GREEN", "Lat": 7.856096, "Lon": 123.579301, "Town": "ZAMBOANGA DEL SUR", "Province": "TUKURAN", "ACL": "48", "Azimuth": "155", "Beam Width": 40, "Length": 200 }, "geometry": { "type": "Point", "coordinates": [ 123.579301, 7.856096 ] } },
{ "type": "Feature", "properties": { "SITENAME": "AGUADA1ISBELABAS", "BCF-Sector": "AGUADA1ISBELABAS-2", "Solution Type": "MACRO", "Site Type": "MACRO", "Blended Congestion": "RED", "Lat": 6.69743, "Lon": 121.968, "Town": "BASILAN", "Province": "ISABELA CITY", "ACL": "35", "Azimuth": "180", "Beam Width": 40, "Length": 200 }, "geometry": { "type": "Point", "coordinates": [ 121.968, 6.69743 ] } },
{ "type": "Feature", "properties": { "SITENAME": "BALSIAORLY", "BCF-Sector": "BALSIAORLY-2", "Solution Type": "MACRO", "Site Type": "MACRO", "Blended Congestion": "RED", "Lat": 7.766289, "Lon": 122.157, "Town": "ZAMBOANGA DEL NORTE", "Province": "BALIGUIAN", "ACL": "44", "Azimuth": "100", "Beam Width": 40, "Length": 200 }, "geometry": { "type": "Point", "coordinates": [ 122.157, 7.766289 ] } },
{ "type": "Feature", "properties": { "SITENAME": "BATULAWANPIKITCOT", "BCF-Sector": "BATULAWANPIKITCOT-2", "Solution Type": "MACRO", "Site Type": "MACRO", "Blended Congestion": "AMBER", "Lat": 7.066362, "Lon": 124.672257, "Town": "COTABATO", "Province": "PIKIT", "ACL": "39", "Azimuth": "180", "Beam Width": 40, "Length": 200 }, "geometry": { "type": "Point", "coordinates": [ 124.672257, 7.066362 ] } },
{ "type": "Feature", "properties": { "SITENAME": "BAYBAYKOLAMBLDN", "BCF-Sector": "BAYBAYKOLAMBLDN-3", "Solution Type": "MACRO", "Site Type": "MACRO", "Blended Congestion": "AMBER", "Lat": 8.110175, "Lon": 123.887121, "Town": "LANAO DEL NORTE", "Province": "KOLAMBUGAN", "ACL": "48", "Azimuth": "230", "Beam Width": 40, "Length": 200 }, "geometry": { "type": "Point", "coordinates": [ 123.887121, 8.110175 ] } },
{ "type": "Feature", "properties": { "SITENAME": "BMORET", "BCF-Sector": "BMORET-2", "Solution Type": "MACRO", "Site Type": "MACRO", "Blended Congestion": "AMBER", "Lat": 6.918128, "Lon": 122.061831, "Town": "ZAMBOANGA DEL SUR", "Province": "ZAMBOANGA CITY", "ACL": "31", "Azimuth": "120", "Beam Width": 40, "Length": 200 }, "geometry": { "type": "Point", "coordinates": [ 122.061831, 6.918128 ] } },
{ "type": "Feature", "properties": { "SITENAME": "CAPHILLBONGAOTAWI", "BCF-Sector": "CAPHILLBONGAOTAWI-3", "Solution Type": "MACRO", "Site Type": "MACRO", "Blended Congestion": "AMBER", "Lat": 5.0228, "Lon": 119.763237, "Town": "TAWI-TAWI", "Province": "BONGAO (CAPITAL)", "ACL": "40", "Azimuth": "320", "Beam Width": 40, "Length": 200 }, "geometry": { "type": "Point", "coordinates": [ 119.763237, 5.0228 ] } },
{ "type": "Feature", "properties": { "SITENAME": "DANSLR", "BCF-Sector": "DANSLR-1", "Solution Type": "MACRO", "Site Type": "MACRO", "Blended Congestion": "AMBER", "Lat": 8.034324, "Lon": 122.577174, "Town": "ZAMBOANGA DEL NORTE", "Province": "LABASON", "ACL": "41", "Azimuth": "330", "Beam Width": 40, "Length": 200 }, "geometry": { "type": "Point", "coordinates": [ 122.577174, 8.034324 ] } },
{ "type": "Feature", "properties": { "SITENAME": "DANSLR", "BCF-Sector": "DANSLR-2", "Solution Type": "MACRO", "Site Type": "MACRO", "Blended Congestion": "AMBER", "Lat": 8.034324, "Lon": 122.577174, "Town": "ZAMBOANGA DEL NORTE", "Province": "LABASON", "ACL": "41", "Azimuth": "90", "Beam Width": 40, "Length": 200 }, "geometry": { "type": "Point", "coordinates": [ 122.577174, 8.034324 ] } },
{ "type": "Feature", "properties": { "SITENAME": "DELAUSMDALUMLDS", "BCF-Sector": "DELAUSMDALUMLDS-2", "Solution Type": "MACRO", "Site Type": "MACRO", "Blended Congestion": "RED", "Lat": 7.85451, "Lon": 124.1141, "Town": "LANAO DEL SUR", "Province": "MADALUM", "ACL": "49", "Azimuth": "120", "Beam Width": 40, "Length": 200 }, "geometry": { "type": "Point", "coordinates": [ 124.1141, 7.85451 ] } },
{ "type": "Feature", "properties": { "SITENAME": "IPIL", "BCF-Sector": "IPIL-3", "Solution Type": "MACRO", "Site Type": "MACRO", "Blended Congestion": "AMBER", "Lat": 7.788609, "Lon": 122.574863, "Town": "ZAMBOANGA SIBUGAY", "Province": "IPIL (CAPITAL)", "ACL": "38", "Azimuth": "240", "Beam Width": 40, "Length": 200 }, "geometry": { "type": "Point", "coordinates": [ 122.574863, 7.788609 ] } },
{ "type": "Feature", "properties": { "SITENAME": "KAPATA", "BCF-Sector": "KAPATA-1", "Solution Type": "MACRO", "Site Type": "MACRO", "Blended Congestion": "GREEN", "Lat": 7.896929, "Lon": 123.767688, "Town": "LANAO DEL NORTE", "Province": "KAPATAGAN", "ACL": "38", "Azimuth": "20", "Beam Width": 40, "Length": 200 }, "geometry": { "type": "Point", "coordinates": [ 123.767688, 7.896929 ] } },
{ "type": "Feature", "properties": { "SITENAME": "KPATAG", "BCF-Sector": "KPATAG-1", "Solution Type": "MACRO", "Site Type": "MACRO", "Blended Congestion": "RED", "Lat": 7.541053, "Lon": 124.213399, "Town": "LANAO DEL SUR", "Province": "MAROGONG", "ACL": "42", "Azimuth": "60", "Beam Width": 40, "Length": 200 }, "geometry": { "type": "Point", "coordinates": [ 124.213399, 7.541053 ] } },
{ "type": "Feature", "properties": { "SITENAME": "LINAMUNANTLAYANMGDN", "BCF-Sector": "LINAMUNANTLAYANMGDN-1", "Solution Type": "MACRO", "Site Type": "MACRO", "Blended Congestion": "AMBER", "Lat": 7.016941, "Lon": 124.395382, "Town": "MAGUINDANAO DEL SUR", "Province": "TALAYAN", "ACL": "39", "Azimuth": "40", "Beam Width": 40, "Length": 200 }, "geometry": { "type": "Point", "coordinates": [ 124.395382, 7.016941 ] } },
{ "type": "Feature", "properties": { "SITENAME": "MABUHAYPILARSDN", "BCF-Sector": "MABUHAYPILARSDN-2", "Solution Type": "MACRO", "Site Type": "MACRO", "Blended Congestion": "RED", "Lat": 9.823575, "Lon": 126.107892, "Town": "SURIGAO DEL NORTE", "Province": "PILAR", "ACL": "39", "Azimuth": "70", "Beam Width": 40, "Length": 200 }, "geometry": { "type": "Point", "coordinates": [ 126.107892, 9.823575 ] } },
{ "type": "Feature", "properties": { "SITENAME": "NOTRED", "BCF-Sector": "NOTRED-3", "Solution Type": "MACRO", "Site Type": "MACRO", "Blended Congestion": "AMBER", "Lat": 7.217309, "Lon": 124.253799, "Town": "MAGUINDANAO DEL NORTE", "Province": "COTABATO CITY", "ACL": "21", "Azimuth": "220", "Beam Width": 40, "Length": 200 }, "geometry": { "type": "Point", "coordinates": [ 124.253799, 7.217309 ] } },
{ "type": "Feature", "properties": { "SITENAME": "PANGIPILZSIB", "BCF-Sector": "PANGIPILZSIB-2", "Solution Type": "MACRO", "Site Type": "MACRO", "Blended Congestion": "RED", "Lat": 7.800401, "Lon": 122.613512, "Town": "ZAMBOANGA SIBUGAY", "Province": "IPIL (CAPITAL)", "ACL": "39", "Azimuth": "70", "Beam Width": 40, "Length": 200 }, "geometry": { "type": "Point", "coordinates": [ 122.613512, 7.800401 ] } },
{ "type": "Feature", "properties": { "SITENAME": "PANTUK", "BCF-Sector": "PANTUK-1", "Solution Type": "MACRO", "Site Type": "MACRO", "Blended Congestion": "AMBER", "Lat": 7.128286, "Lon": 125.898074, "Town": "DAVAO DE ORO", "Province": "PANTUKAN", "ACL": "45", "Azimuth": "340", "Beam Width": 40, "Length": 200 }, "geometry": { "type": "Point", "coordinates": [ 125.898074, 7.128286 ] } },
{ "type": "Feature", "properties": { "SITENAME": "PATAWA", "BCF-Sector": "PATAWA-2", "Solution Type": "MACRO", "Site Type": "MACRO", "Blended Congestion": "RED", "Lat": 8.095428, "Lon": 122.612848, "Town": "ZAMBOANGA DEL NORTE", "Province": "LABASON", "ACL": "41", "Azimuth": "120", "Beam Width": 40, "Length": 200 }, "geometry": { "type": "Point", "coordinates": [ 122.612848, 8.095428 ] } },
{ "type": "Feature", "properties": { "SITENAME": "POB3LEBAKSKUD", "BCF-Sector": "POB3LEBAKSKUD-2", "Solution Type": "MACRO", "Site Type": "MACRO", "Blended Congestion": "RED", "Lat": 6.63171, "Lon": 124.065768, "Town": "SULTAN KUDARAT", "Province": "LEBAK", "ACL": "29", "Azimuth": "170", "Beam Width": 40, "Length": 200 }, "geometry": { "type": "Point", "coordinates": [ 124.065768, 6.63171 ] } },
{ "type": "Feature", "properties": { "SITENAME": "POB3LEBAKSKUD", "BCF-Sector": "POB3LEBAKSKUD-3", "Solution Type": "MACRO", "Site Type": "MACRO", "Blended Congestion": "RED", "Lat": 6.63171, "Lon": 124.065768, "Town": "SULTAN KUDARAT", "Province": "LEBAK", "ACL": "29", "Azimuth": "270", "Beam Width": 40, "Length": 200 }, "geometry": { "type": "Point", "coordinates": [ 124.065768, 6.63171 ] } },
{ "type": "Feature", "properties": { "SITENAME": "POBSAGUIALDS", "BCF-Sector": "POBSAGUIALDS-1", "Solution Type": "MACRO", "Site Type": "MACRO", "Blended Congestion": "AMBER", "Lat": 8.037301, "Lon": 124.269947, "Town": "LANAO DEL SUR", "Province": "SAGUIARAN", "ACL": "39", "Azimuth": "340", "Beam Width": 40, "Length": 200 }, "geometry": { "type": "Point", "coordinates": [ 124.269947, 8.037301 ] } },
{ "type": "Feature", "properties": { "SITENAME": "POLONU", "BCF-Sector": "POLONU-3", "Solution Type": "MACRO", "Site Type": "MACRO", "Blended Congestion": "AMBER", "Lat": 6.287003, "Lon": 124.971381, "Town": "SOUTH COTABATO", "Province": "TUPI", "ACL": "40", "Azimuth": "230", "Beam Width": 40, "Length": 200 }, "geometry": { "type": "Point", "coordinates": [ 124.971381, 6.287003 ] } },
{ "type": "Feature", "properties": { "SITENAME": "PRK2POBCAGWITSDS", "BCF-Sector": "PRK2POBCAGWITSDS-2", "Solution Type": "MACRO", "Site Type": "MACRO", "Blended Congestion": "AMBER", "Lat": 8.919689, "Lon": 126.301771, "Town": "SURIGAO DEL SUR", "Province": "CAGWAIT", "ACL": "42", "Azimuth": "125", "Beam Width": 40, "Length": 200 }, "geometry": { "type": "Point", "coordinates": [ 126.301771, 8.919689 ] } },
{ "type": "Feature", "properties": { "SITENAME": "RJOLO", "BCF-Sector": "RJOLO-1", "Solution Type": "MACRO", "Site Type": "MACRO", "Blended Congestion": "GREEN", "Lat": 6.015249, "Lon": 121.078401, "Town": "SULU", "Province": "PATIKUL", "ACL": "40", "Azimuth": "330", "Beam Width": 40, "Length": 200 }, "geometry": { "type": "Point", "coordinates": [ 121.078401, 6.015249 ] } },
{ "type": "Feature", "properties": { "SITENAME": "RJOLO", "BCF-Sector": "RJOLO-2", "Solution Type": "MACRO", "Site Type": "MACRO", "Blended Congestion": "GREEN", "Lat": 6.015249, "Lon": 121.078401, "Town": "SULU", "Province": "PATIKUL", "ACL": "40", "Azimuth": "50", "Beam Width": 40, "Length": 200 }, "geometry": { "type": "Point", "coordinates": [ 121.078401, 6.015249 ] } },
{ "type": "Feature", "properties": { "SITENAME": "ROSARYHT10COTABMGDN", "BCF-Sector": "ROSARYHT10COTABMGDN-1", "Solution Type": "MACRO", "Site Type": "MACRO", "Blended Congestion": "GREEN", "Lat": 7.198797, "Lon": 124.236743, "Town": "MAGUINDANAO DEL NORTE", "Province": "COTABATO CITY", "ACL": "39.3", "Azimuth": "330", "Beam Width": 40, "Length": 200 }, "geometry": { "type": "Point", "coordinates": [ 124.236743, 7.198797 ] } },
{ "type": "Feature", "properties": { "SITENAME": "ROSARYHT7COTABMGDN", "BCF-Sector": "ROSARYHT7COTABMGDN-2", "Solution Type": "MACRO", "Site Type": "MACRO", "Blended Congestion": "AMBER", "Lat": 7.201862, "Lon": 124.246301, "Town": "MAGUINDANAO DEL NORTE", "Province": "COTABATO CITY", "ACL": "39", "Azimuth": "120", "Beam Width": 40, "Length": 200 }, "geometry": { "type": "Point", "coordinates": [ 124.246301, 7.201862 ] } },
{ "type": "Feature", "properties": { "SITENAME": "RSOUPI", "BCF-Sector": "RSOUPI-2", "Solution Type": "MACRO", "Site Type": "MACRO", "Blended Congestion": "RED", "Lat": 6.86902, "Lon": 124.1704, "Town": "MAGUINDANAO DEL SUR", "Province": "SOUTH UPI", "ACL": "50", "Azimuth": "190", "Beam Width": 40, "Length": 200 }, "geometry": { "type": "Point", "coordinates": [ 124.1704, 6.86902 ] } },
{ "type": "Feature", "properties": { "SITENAME": "RSOUPI", "BCF-Sector": "RSOUPI-3", "Solution Type": "MACRO", "Site Type": "MACRO", "Blended Congestion": "RED", "Lat": 6.86902, "Lon": 124.1704, "Town": "MAGUINDANAO DEL SUR", "Province": "SOUTH UPI", "ACL": "50", "Azimuth": "290", "Beam Width": 40, "Length": 200 }, "geometry": { "type": "Point", "coordinates": [ 124.1704, 6.86902 ] } },
{ "type": "Feature", "properties": { "SITENAME": "RTALTAKGLAN", "BCF-Sector": "RTALTAKGLAN-1", "Solution Type": "MACRO", "Site Type": "MACRO", "Blended Congestion": "AMBER", "Lat": 5.612134, "Lon": 125.337143, "Town": "SARANGANI", "Province": "GLAN", "ACL": "40", "Azimuth": "40", "Beam Width": 40, "Length": 200 }, "geometry": { "type": "Point", "coordinates": [ 125.337143, 5.612134 ] } },
{ "type": "Feature", "properties": { "SITENAME": "RUMIBARIRAMGDN", "BCF-Sector": "RUMIBARIRAMGDN-1", "Solution Type": "MACRO", "Site Type": "MACRO", "Blended Congestion": "RED", "Lat": 7.40903, "Lon": 124.35166, "Town": "MAGUINDANAO DEL NORTE", "Province": "BARIRA", "ACL": "40", "Azimuth": "70", "Beam Width": 40, "Length": 200 }, "geometry": { "type": "Point", "coordinates": [ 124.35166, 7.40903 ] } },
{ "type": "Feature", "properties": { "SITENAME": "SIOCON", "BCF-Sector": "SIOCON-1", "Solution Type": "MACRO", "Site Type": "MACRO", "Blended Congestion": "AMBER", "Lat": 7.705739, "Lon": 122.140146, "Town": "ZAMBOANGA DEL NORTE", "Province": "SIOCON", "ACL": "31", "Azimuth": "0", "Beam Width": 40, "Length": 200 }, "geometry": { "type": "Point", "coordinates": [ 122.140146, 7.705739 ] } },
{ "type": "Feature", "properties": { "SITENAME": "SIOCON", "BCF-Sector": "SIOCON-3", "Solution Type": "MACRO", "Site Type": "MACRO", "Blended Congestion": "AMBER", "Lat": 7.705739, "Lon": 122.140146, "Town": "ZAMBOANGA DEL NORTE", "Province": "SIOCON", "ACL": "31", "Azimuth": "270", "Beam Width": 40, "Length": 200 }, "geometry": { "type": "Point", "coordinates": [ 122.140146, 7.705739 ] } },
{ "type": "Feature", "properties": { "SITENAME": "SWITYAKALANTAWBAS", "BCF-Sector": "SWITYAKALANTAWBAS-3", "Solution Type": "MACRO", "Site Type": "MACRO", "Blended Congestion": "AMBER", "Lat": 6.587588, "Lon": 121.926548, "Town": "BASILAN", "Province": "LANTAWAN", "ACL": "33", "Azimuth": "250", "Beam Width": 40, "Length": 200 }, "geometry": { "type": "Point", "coordinates": [ 121.926548, 6.587588 ] } },
{ "type": "Feature", "properties": { "SITENAME": "TAGOL1", "BCF-Sector": "TAGOL1-3", "Solution Type": "MACRO", "Site Type": "MACRO", "Blended Congestion": "AMBER", "Lat": 8.537904, "Lon": 124.752, "Town": "MISAMIS ORIENTAL", "Province": "TAGOLOAN", "ACL": "42", "Azimuth": "290", "Beam Width": 40, "Length": 200 }, "geometry": { "type": "Point", "coordinates": [ 124.752, 8.537904 ] } },
{ "type": "Feature", "properties": { "SITENAME": "TAMPAR", "BCF-Sector": "TAMPAR-1", "Solution Type": "MACRO", "Site Type": "MACRO", "Blended Congestion": "AMBER", "Lat": 7.864775, "Lon": 124.331535, "Town": "LANAO DEL SUR", "Province": "TAMPARAN", "ACL": "42", "Azimuth": "0", "Beam Width": 40, "Length": 200 }, "geometry": { "type": "Point", "coordinates": [ 124.331535, 7.864775 ] } },
{ "type": "Feature", "properties": { "SITENAME": "TAMPILMARAWILDS", "BCF-Sector": "TAMPILMARAWILDS-3", "Solution Type": "MACRO", "Site Type": "MACRO", "Blended Congestion": "AMBER", "Lat": 8.015265, "Lon": 124.288536, "Town": "LANAO DEL SUR", "Province": "MARAWI CITY (CAPITAL)", "ACL": "38", "Azimuth": "200", "Beam Width": 40, "Length": 200 }, "geometry": { "type": "Point", "coordinates": [ 124.288536, 8.015265 ] } },
{ "type": "Feature", "properties": { "SITENAME": "TANDUBATOLUUKSULU", "BCF-Sector": "TANDUBATOLUUKSULU-1", "Solution Type": "MACRO", "Site Type": "MACRO", "Blended Congestion": "RED", "Lat": 5.993722, "Lon": 121.307278, "Town": "SULU", "Province": "LUUK", "ACL": "39", "Azimuth": "10", "Beam Width": 40, "Length": 200 }, "geometry": { "type": "Point", "coordinates": [ 121.307278, 5.993722 ] } },
{ "type": "Feature", "properties": { "SITENAME": "TCAICBUSBUSJOLOSULU", "BCF-Sector": "TCAICBUSBUSJOLOSULU-2", "Solution Type": "MACRO", "Site Type": "MACRO", "Blended Congestion": "RED", "Lat": 6.05902, "Lon": 121.006765, "Town": "SULU", "Province": "JOLO (CAPITAL)", "ACL": "18", "Azimuth": "120", "Beam Width": 40, "Length": 200 }, "geometry": { "type": "Point", "coordinates": [ 121.006765, 6.05902 ] } },
{ "type": "Feature", "properties": { "SITENAME": "TCAICLILSADUCMARAWILDS", "BCF-Sector": "TCAICLILSADUCMARAWILDS-2", "Solution Type": "MACRO", "Site Type": "MACRO", "Blended Congestion": "AMBER", "Lat": 8.009812, "Lon": 124.290576, "Town": "LANAO DEL SUR", "Province": "MARAWI CITY (CAPITAL)", "ACL": "49", "Azimuth": "180", "Beam Width": 40, "Length": 200 }, "geometry": { "type": "Point", "coordinates": [ 124.290576, 8.009812 ] } },
{ "type": "Feature", "properties": { "SITENAME": "TCAICSNAGUSTINTANDAGSDS", "BCF-Sector": "TCAICSNAGUSTINTANDAGSDS-3", "Solution Type": "MACRO", "Site Type": "MACRO", "Blended Congestion": "AMBER", "Lat": 9.07673, "Lon": 126.182567, "Town": "SURIGAO DEL SUR", "Province": "TANDAG CITY (CAPITAL)", "ACL": "39", "Azimuth": "280", "Beam Width": 40, "Length": 200 }, "geometry": { "type": "Point", "coordinates": [ 126.182567, 9.07673 ] } },
{ "type": "Feature", "properties": { "SITENAME": "TCFGAANIBONCARMENDDN", "BCF-Sector": "TCFGAANIBONCARMENDDN-2", "Solution Type": "MACRO", "Site Type": "MACRO", "Blended Congestion": "AMBER", "Lat": 7.397727, "Lon": 125.714668, "Town": "DAVAO DEL NORTE", "Province": "CARMEN", "ACL": "39", "Azimuth": "130", "Beam Width": 40, "Length": 200 }, "geometry": { "type": "Point", "coordinates": [ 125.714668, 7.397727 ] } },
{ "type": "Feature", "properties": { "SITENAME": "TCFGABULOLPIKITCOT", "BCF-Sector": "TCFGABULOLPIKITCOT-2", "Solution Type": "MACRO", "Site Type": "MACRO", "Blended Congestion": "AMBER", "Lat": 7.0034, "Lon": 124.691, "Town": "COTABATO", "Province": "PIKIT", "ACL": "39", "Azimuth": "135", "Beam Width": 40, "Length": 200 }, "geometry": { "type": "Point", "coordinates": [ 124.691, 7.0034 ] } },
{ "type": "Feature", "properties": { "SITENAME": "TCFGACENTRASURALLSCOT", "BCF-Sector": "TCFGACENTRASURALLSCOT-1", "Solution Type": "MACRO", "Site Type": "MACRO", "Blended Congestion": "AMBER", "Lat": 6.357108, "Lon": 124.75581, "Town": "SOUTH COTABATO", "Province": "SURALLAH", "ACL": "39", "Azimuth": "90", "Beam Width": 40, "Length": 200 }, "geometry": { "type": "Point", "coordinates": [ 124.75581, 6.357108 ] } },
{ "type": "Feature", "properties": { "SITENAME": "TCFGACENTRASURALLSCOT", "BCF-Sector": "TCFGACENTRASURALLSCOT-2", "Solution Type": "MACRO", "Site Type": "MACRO", "Blended Congestion": "GREEN", "Lat": 6.357108, "Lon": 124.75581, "Town": "SOUTH COTABATO", "Province": "SURALLAH", "ACL": "39", "Azimuth": "160", "Beam Width": 40, "Length": 200 }, "geometry": { "type": "Point", "coordinates": [ 124.75581, 6.357108 ] } },
{ "type": "Feature", "properties": { "SITENAME": "TCFGADALINGAOENPIKITNCOT", "BCF-Sector": "TCFGADALINGAOENPIKITNCOT-3", "Solution Type": "MACRO", "Site Type": "MACRO", "Blended Congestion": "AMBER", "Lat": 7.080191, "Lon": 124.662069, "Town": "COTABATO", "Province": "PIKIT", "ACL": "27", "Azimuth": "170", "Beam Width": 40, "Length": 200 }, "geometry": { "type": "Point", "coordinates": [ 124.662069, 7.080191 ] } },
{ "type": "Feature", "properties": { "SITENAME": "TCFGAHAYANCLAVERSDN", "BCF-Sector": "TCFGAHAYANCLAVERSDN-3", "Solution Type": "MACRO", "Site Type": "MACRO", "Blended Congestion": "RED", "Lat": 9.54005, "Lon": 125.841, "Town": "SURIGAO DEL NORTE", "Province": "CLAVER", "ACL": "6", "Azimuth": "220", "Beam Width": 40, "Length": 200 }, "geometry": { "type": "Point", "coordinates": [ 125.841, 9.54005 ] } },
{ "type": "Feature", "properties": { "SITENAME": "TCFGAKAJAT1INDANASULU", "BCF-Sector": "TCFGAKAJAT1INDANASULU-2", "Solution Type": "MACRO", "Site Type": "MACRO", "Blended Congestion": "AMBER", "Lat": 6.044037, "Lon": 120.997667, "Town": "SULU", "Province": "INDANAN", "ACL": "35", "Azimuth": "110", "Beam Width": 40, "Length": 200 }, "geometry": { "type": "Point", "coordinates": [ 120.997667, 6.044037 ] } },
{ "type": "Feature", "properties": { "SITENAME": "TCFGAPANGYAGLANSAR", "BCF-Sector": "TCFGAPANGYAGLANSAR-1", "Solution Type": "MACRO", "Site Type": "MACRO", "Blended Congestion": "AMBER", "Lat": 5.694134, "Lon": 125.292121, "Town": "SARANGANI", "Province": "GLAN", "ACL": "42", "Azimuth": "350", "Beam Width": 40, "Length": 200 }, "geometry": { "type": "Point", "coordinates": [ 125.292121, 5.694134 ] } },
{ "type": "Feature", "properties": { "SITENAME": "TCFGASEASIDEISBELABAS", "BCF-Sector": "TCFGASEASIDEISBELABAS-1", "Solution Type": "MACRO", "Site Type": "MACRO", "Blended Congestion": "RED", "Lat": 6.706765, "Lon": 121.979251, "Town": "BASILAN", "Province": "ISABELA CITY", "ACL": "29", "Azimuth": "300", "Beam Width": 40, "Length": 200 }, "geometry": { "type": "Point", "coordinates": [ 121.979251, 6.706765 ] } },
{ "type": "Feature", "properties": { "SITENAME": "TCFGASIMBPOBPANGUTSULU", "BCF-Sector": "TCFGASIMBPOBPANGUTSULU-2", "Solution Type": "MACRO", "Site Type": "MACRO", "Blended Congestion": "RED", "Lat": 6.305528, "Lon": 120.58175, "Town": "SULU", "Province": "PANGUTARAN", "ACL": "39", "Azimuth": "180", "Beam Width": 40, "Length": 200 }, "geometry": { "type": "Point", "coordinates": [ 120.58175, 6.305528 ] } },
{ "type": "Feature", "properties": { "SITENAME": "TCFGASPABLODUMINGZDS", "BCF-Sector": "TCFGASPABLODUMINGZDS-3", "Solution Type": "MACRO", "Site Type": "MACRO", "Blended Congestion": "AMBER", "Lat": 8.154928, "Lon": 123.348166, "Town": "ZAMBOANGA DEL SUR", "Province": "DUMINGAG", "ACL": "40", "Azimuth": "245", "Beam Width": 40, "Length": 200 }, "geometry": { "type": "Point", "coordinates": [ 123.348166, 8.154928 ] } },
{ "type": "Feature", "properties": { "SITENAME": "TCISCALUMGENSANSCOT", "BCF-Sector": "TCISCALUMGENSANSCOT-2", "Solution Type": "MACRO", "Site Type": "MACRO", "Blended Congestion": "RED", "Lat": 6.07768, "Lon": 125.13758, "Town": "SOUTH COTABATO", "Province": "GENERAL SANTOS CITY", "ACL": "29", "Azimuth": "110", "Beam Width": 40, "Length": 200 }, "geometry": { "type": "Point", "coordinates": [ 125.13758, 6.07768 ] } },
{ "type": "Feature", "properties": { "SITENAME": "TCPHTCORAHABMALABALDS", "BCF-Sector": "TCPHTCORAHABMALABALDS-1", "Solution Type": "MACRO", "Site Type": "MACRO", "Blended Congestion": "RED", "Lat": 7.592528, "Lon": 124.069249, "Town": "LANAO DEL SUR", "Province": "MALABANG", "ACL": "43", "Azimuth": "20", "Beam Width": 40, "Length": 200 }, "geometry": { "type": "Point", "coordinates": [ 124.069249, 7.592528 ] } },
{ "type": "Feature", "properties": { "SITENAME": "TCPHTCORAHABMALABALDS", "BCF-Sector": "TCPHTCORAHABMALABALDS-2", "Solution Type": "MACRO", "Site Type": "MACRO", "Blended Congestion": "RED", "Lat": 7.592528, "Lon": 124.069249, "Town": "LANAO DEL SUR", "Province": "MALABANG", "ACL": "43", "Azimuth": "155", "Beam Width": 40, "Length": 200 }, "geometry": { "type": "Point", "coordinates": [ 124.069249, 7.592528 ] } },
{ "type": "Feature", "properties": { "SITENAME": "TCPHTEDWARDSTBOLISCOT", "BCF-Sector": "TCPHTEDWARDSTBOLISCOT-1", "Solution Type": "MACRO", "Site Type": "MACRO", "Blended Congestion": "GREEN", "Lat": 5.918052, "Lon": 124.8024, "Town": "SARANGANI", "Province": "KIAMBA", "ACL": "39", "Azimuth": "350", "Beam Width": 40, "Length": 200 }, "geometry": { "type": "Point", "coordinates": [ 124.8024, 5.918052 ] } },
{ "type": "Feature", "properties": { "SITENAME": "TCPHTRANGAYALMADANCOT", "BCF-Sector": "TCPHTRANGAYALMADANCOT-3", "Solution Type": "MACRO", "Site Type": "MACRO", "Blended Congestion": "RED", "Lat": 7.47983, "Lon": 124.5642, "Town": "COTABATO", "Province": "ALAMADA", "ACL": "44", "Azimuth": "290", "Beam Width": 40, "Length": 200 }, "geometry": { "type": "Point", "coordinates": [ 124.5642, 7.47983 ] } },
{ "type": "Feature", "properties": { "SITENAME": "TPOMATRLNGUPUKANBAS", "BCF-Sector": "TPOMATRLNGUPUKANBAS-2", "Solution Type": "MACRO", "Site Type": "MACRO", "Blended Congestion": "AMBER", "Lat": 6.490286, "Lon": 122.1153, "Town": "BASILAN", "Province": "UNGKAYA PUKAN", "ACL": "43", "Azimuth": "35", "Beam Width": 40, "Length": 200 }, "geometry": { "type": "Point", "coordinates": [ 122.1153, 6.490286 ] } },
{ "type": "Feature", "properties": { "SITENAME": "TPOMATRLNGUPUKANBAS", "BCF-Sector": "TPOMATRLNGUPUKANBAS-3", "Solution Type": "MACRO", "Site Type": "MACRO", "Blended Congestion": "AMBER", "Lat": 6.490286, "Lon": 122.1153, "Town": "BASILAN", "Province": "UNGKAYA PUKAN", "ACL": "43", "Azimuth": "210", "Beam Width": 40, "Length": 200 }, "geometry": { "type": "Point", "coordinates": [ 122.1153, 6.490286 ] } },
{ "type": "Feature", "properties": { "SITENAME": "UPI2", "BCF-Sector": "UPI2-3", "Solution Type": "MACRO", "Site Type": "MACRO", "Blended Congestion": "AMBER", "Lat": 7.054639, "Lon": 124.146991, "Town": "MAGUINDANAO DEL NORTE", "Province": "UPI", "ACL": "32", "Azimuth": "280", "Beam Width": 40, "Length": 200 }, "geometry": { "type": "Point", "coordinates": [ 124.146991, 7.054639 ] } },
{ "type": "Feature", "properties": { "SITENAME": "BANGKALPTKUL1", "BCF-Sector": "BANGKALPTKUL1-3", "Solution Type": "MACRO", "Site Type": "MACRO", "Blended Congestion": "RED", "Lat": 6.050661, "Lon": 121.01771, "Town": "SULU", "Province": "PATIKUL", "ACL": "39", "Azimuth": "250", "Beam Width": 40, "Length": 200 }, "geometry": { "type": "Point", "coordinates": [ 121.01771, 6.050661 ] } },
{ "type": "Feature", "properties": { "SITENAME": "HADJIMAMSIBUTUTAWI", "BCF-Sector": "HADJIMAMSIBUTUTAWI-1", "Solution Type": "MACRO", "Site Type": "MACRO", "Blended Congestion": "RED", "Lat": 4.826, "Lon": 119.491, "Town": "TAWI-TAWI", "Province": "SIBUTU", "ACL": "49", "Azimuth": "285", "Beam Width": 40, "Length": 200 }, "geometry": { "type": "Point", "coordinates": [ 119.491, 4.826 ] } },
{ "type": "Feature", "properties": { "SITENAME": "TCAICDANSOLIHONCDOMOR", "BCF-Sector": "TCAICDANSOLIHONCDOMOR-2", "Solution Type": "MACRO", "Site Type": "MACRO", "Blended Congestion": "AMBER", "Lat": 8.306945, "Lon": 124.578245, "Town": "MISAMIS ORIENTAL", "Province": "CAGAYAN DE ORO CITY (CAPITAL)", "ACL": "43", "Azimuth": "75", "Beam Width": 40, "Length": 200 }, "geometry": { "type": "Point", "coordinates": [ 124.578245, 8.306945 ] } },
{ "type": "Feature", "properties": { "SITENAME": "TCAICEASTPOBRIZALZDN", "BCF-Sector": "TCAICEASTPOBRIZALZDN-1", "Solution Type": "MACRO", "Site Type": "MACRO", "Blended Congestion": "RED", "Lat": 8.522568, "Lon": 123.553404, "Town": "ZAMBOANGA DEL NORTE", "Province": "RIZAL", "ACL": "36", "Azimuth": "0", "Beam Width": 40, "Length": 200 }, "geometry": { "type": "Point", "coordinates": [ 123.553404, 8.522568 ] } },
{ "type": "Feature", "properties": { "SITENAME": "TCAICKINABLANBAGANGDVOR", "BCF-Sector": "TCAICKINABLANBAGANGDVOR-2", "Solution Type": "MACRO", "Site Type": "MACRO", "Blended Congestion": "RED", "Lat": 7.58895, "Lon": 126.559083, "Town": "DAVAO ORIENTAL", "Province": "BAGANGA", "ACL": "39", "Azimuth": "185", "Beam Width": 40, "Length": 200 }, "geometry": { "type": "Point", "coordinates": [ 126.559083, 7.58895 ] } },
{ "type": "Feature", "properties": { "SITENAME": "TCAICLILIONG2CARMENNCOT", "BCF-Sector": "TCAICLILIONG2CARMENNCOT-1", "Solution Type": "MACRO", "Site Type": "MACRO", "Blended Congestion": "RED", "Lat": 7.365313, "Lon": 124.78247, "Town": "COTABATO", "Province": "CARMEN", "ACL": "41", "Azimuth": "90", "Beam Width": 40, "Length": 200 }, "geometry": { "type": "Point", "coordinates": [ 124.78247, 7.365313 ] } },
{ "type": "Feature", "properties": { "SITENAME": "TCAICNALAPAANPIKITNCOT", "BCF-Sector": "TCAICNALAPAANPIKITNCOT-2", "Solution Type": "MACRO", "Site Type": "MACRO", "Blended Congestion": "RED", "Lat": 7.099102, "Lon": 124.624208, "Town": "COTABATO", "Province": "PIKIT", "ACL": "44", "Azimuth": "200", "Beam Width": 40, "Length": 200 }, "geometry": { "type": "Point", "coordinates": [ 124.624208, 7.099102 ] } },
{ "type": "Feature", "properties": { "SITENAME": "TCAICNEWLITUBANSIOCONZDN", "BCF-Sector": "TCAICNEWLITUBANSIOCONZDN-2", "Solution Type": "MACRO", "Site Type": "MACRO", "Blended Congestion": "RED", "Lat": 7.7103, "Lon": 122.1703, "Town": "ZAMBOANGA DEL NORTE", "Province": "SIOCON", "ACL": "29", "Azimuth": "120", "Beam Width": 40, "Length": 200 }, "geometry": { "type": "Point", "coordinates": [ 122.1703, 7.7103 ] } },
{ "type": "Feature", "properties": { "SITENAME": "TCAICPOBMAROGOLDS", "BCF-Sector": "TCAICPOBMAROGOLDS-1", "Solution Type": "MACRO", "Site Type": "MACRO", "Blended Congestion": "RED", "Lat": 7.6788, "Lon": 124.149, "Town": "LANAO DEL SUR", "Province": "MAROGONG", "ACL": "40", "Azimuth": "310", "Beam Width": 40, "Length": 200 }, "geometry": { "type": "Point", "coordinates": [ 124.149, 7.6788 ] } },
{ "type": "Feature", "properties": { "SITENAME": "TCAICPOBMAROGOLDS", "BCF-Sector": "TCAICPOBMAROGOLDS-2", "Solution Type": "MACRO", "Site Type": "MACRO", "Blended Congestion": "RED", "Lat": 7.6788, "Lon": 124.149, "Town": "LANAO DEL SUR", "Province": "MAROGONG", "ACL": "40", "Azimuth": "60", "Beam Width": 40, "Length": 200 }, "geometry": { "type": "Point", "coordinates": [ 124.149, 7.6788 ] } },
{ "type": "Feature", "properties": { "SITENAME": "TCAICPOBMAROGOLDS", "BCF-Sector": "TCAICPOBMAROGOLDS-3", "Solution Type": "MACRO", "Site Type": "MACRO", "Blended Congestion": "RED", "Lat": 7.6788, "Lon": 124.149, "Town": "LANAO DEL SUR", "Province": "MAROGONG", "ACL": "40", "Azimuth": "170", "Beam Width": 40, "Length": 200 }, "geometry": { "type": "Point", "coordinates": [ 124.149, 7.6788 ] } },
{ "type": "Feature", "properties": { "SITENAME": "TCAICSUHARABISIOCONZDN", "BCF-Sector": "TCAICSUHARABISIOCONZDN-1", "Solution Type": "MACRO", "Site Type": "MACRO", "Blended Congestion": "RED", "Lat": 7.6988, "Lon": 122.1274, "Town": "ZAMBOANGA DEL NORTE", "Province": "SIOCON", "ACL": "44", "Azimuth": "35", "Beam Width": 40, "Length": 200 }, "geometry": { "type": "Point", "coordinates": [ 122.1274, 7.6988 ] } },
{ "type": "Feature", "properties": { "SITENAME": "TCAICSUHARABISIOCONZDN", "BCF-Sector": "TCAICSUHARABISIOCONZDN-2", "Solution Type": "MACRO", "Site Type": "MACRO", "Blended Congestion": "AMBER", "Lat": 7.6988, "Lon": 122.1274, "Town": "ZAMBOANGA DEL NORTE", "Province": "SIOCON", "ACL": "44", "Azimuth": "100", "Beam Width": 40, "Length": 200 }, "geometry": { "type": "Point", "coordinates": [ 122.1274, 7.6988 ] } },
{ "type": "Feature", "properties": { "SITENAME": "TCAICTAMBOPOBPUALASLDS", "BCF-Sector": "TCAICTAMBOPOBPUALASLDS-2", "Solution Type": "MACRO", "Site Type": "MACRO", "Blended Congestion": "RED", "Lat": 7.822867, "Lon": 124.079364, "Town": "LANAO DEL SUR", "Province": "PUALAS", "ACL": "47", "Azimuth": "180", "Beam Width": 40, "Length": 200 }, "geometry": { "type": "Point", "coordinates": [ 124.079364, 7.822867 ] } },
{ "type": "Feature", "properties": { "SITENAME": "TCEDCBULIBULISUMSIPBAS", "BCF-Sector": "TCEDCBULIBULISUMSIPBAS-3", "Solution Type": "MACRO", "Site Type": "MACRO", "Blended Congestion": "RED", "Lat": 6.419623, "Lon": 122.035274, "Town": "BASILAN", "Province": "SUMISIP", "ACL": "41", "Azimuth": "265", "Beam Width": 40, "Length": 200 }, "geometry": { "type": "Point", "coordinates": [ 122.035274, 6.419623 ] } },
{ "type": "Feature", "properties": { "SITENAME": "TCEDCCAMPCROSLIBONABUK", "BCF-Sector": "TCEDCCAMPCROSLIBONABUK-3", "Solution Type": "MACRO", "Site Type": "MACRO", "Blended Congestion": "RED", "Lat": 8.325157, "Lon": 124.799793, "Town": "BUKIDNON", "Province": "LIBONA", "ACL": "39", "Azimuth": "180", "Beam Width": 40, "Length": 200 }, "geometry": { "type": "Point", "coordinates": [ 124.799793, 8.325157 ] } },
{ "type": "Feature", "properties": { "SITENAME": "TCEDCDELMONTEBUUGZSIB", "BCF-Sector": "TCEDCDELMONTEBUUGZSIB-1", "Solution Type": "MACRO", "Site Type": "MACRO", "Blended Congestion": "RED", "Lat": 7.72171, "Lon": 123.00032, "Town": "ZAMBOANGA SIBUGAY", "Province": "BUUG", "ACL": "38", "Azimuth": "350", "Beam Width": 40, "Length": 200 }, "geometry": { "type": "Point", "coordinates": [ 123.00032, 7.72171 ] } },
{ "type": "Feature", "properties": { "SITENAME": "TCEDCKIBANGAYLANTAPBUK", "BCF-Sector": "TCEDCKIBANGAYLANTAPBUK-3", "Solution Type": "MACRO", "Site Type": "MACRO", "Blended Congestion": "RED", "Lat": 8.048479, "Lon": 124.895512, "Town": "BUKIDNON", "Province": "LANTAPAN", "ACL": "38", "Azimuth": "260", "Beam Width": 40, "Length": 200 }, "geometry": { "type": "Point", "coordinates": [ 124.895512, 8.048479 ] } },
{ "type": "Feature", "properties": { "SITENAME": "TCEDCSOMOGREDUPANABODDN", "BCF-Sector": "TCEDCSOMOGREDUPANABODDN-2", "Solution Type": "MACRO", "Site Type": "MACRO", "Blended Congestion": "RED", "Lat": 7.304324, "Lon": 125.677384, "Town": "DAVAO DEL NORTE", "Province": "PANABO CITY", "ACL": "34", "Azimuth": "110", "Beam Width": 40, "Length": 200 }, "geometry": { "type": "Point", "coordinates": [ 125.677384, 7.304324 ] } },
{ "type": "Feature", "properties": { "SITENAME": "TCFGATOWNSTE1MLUSOBAS", "BCF-Sector": "TCFGATOWNSTE1MLUSOBAS-1", "Solution Type": "MACRO", "Site Type": "MACRO", "Blended Congestion": "AMBER", "Lat": 6.54367, "Lon": 121.869, "Town": "BASILAN", "Province": "MALUSO", "ACL": "32", "Azimuth": "15", "Beam Width": 40, "Length": 200 }, "geometry": { "type": "Point", "coordinates": [ 121.869, 6.54367 ] } },
{ "type": "Feature", "properties": { "SITENAME": "TCFGAZ2MAMBUYACDOMOR", "BCF-Sector": "TCFGAZ2MAMBUYACDOMOR-1", "Solution Type": "MACRO", "Site Type": "MACRO", "Blended Congestion": "RED", "Lat": 8.328659, "Lon": 124.5967, "Town": "MISAMIS ORIENTAL", "Province": "CAGAYAN DE ORO CITY (CAPITAL)", "ACL": "39", "Azimuth": "10", "Beam Width": 40, "Length": 200 }, "geometry": { "type": "Point", "coordinates": [ 124.5967, 8.328659 ] } },
{ "type": "Feature", "properties": { "SITENAME": "TCISBARURAOLEBAKSKUD", "BCF-Sector": "TCISBARURAOLEBAKSKUD-2", "Solution Type": "MACRO", "Site Type": "MACRO", "Blended Congestion": "RED", "Lat": 6.658876, "Lon": 124.072675, "Town": "SULTAN KUDARAT", "Province": "LEBAK", "ACL": "39", "Azimuth": "190", "Beam Width": 40, "Length": 200 }, "geometry": { "type": "Point", "coordinates": [ 124.072675, 6.658876 ] } },
{ "type": "Feature", "properties": { "SITENAME": "TCISBARURAOLEBAKSKUD", "BCF-Sector": "TCISBARURAOLEBAKSKUD-3", "Solution Type": "MACRO", "Site Type": "MACRO", "Blended Congestion": "RED", "Lat": 6.658876, "Lon": 124.072675, "Town": "SULTAN KUDARAT", "Province": "LEBAK", "ACL": "39", "Azimuth": "270", "Beam Width": 40, "Length": 200 }, "geometry": { "type": "Point", "coordinates": [ 124.072675, 6.658876 ] } },
{ "type": "Feature", "properties": { "SITENAME": "TCISUNION1MONKAYCVLY", "BCF-Sector": "TCISUNION1MONKAYCVLY-2", "Solution Type": "MACRO", "Site Type": "MACRO", "Blended Congestion": "RED", "Lat": 7.80834, "Lon": 126.0973, "Town": "DAVAO DE ORO", "Province": "MONKAYO", "ACL": "39", "Azimuth": "130", "Beam Width": 40, "Length": 200 }, "geometry": { "type": "Point", "coordinates": [ 126.0973, 7.80834 ] } },
{ "type": "Feature", "properties": { "SITENAME": "TCLDCPAHUTBONGAOTAWI", "BCF-Sector": "TCLDCPAHUTBONGAOTAWI-1", "Solution Type": "MACRO", "Site Type": "MACRO", "Blended Congestion": "AMBER", "Lat": 5.02738, "Lon": 119.741, "Town": "TAWI-TAWI", "Province": "BONGAO (CAPITAL)", "ACL": "39", "Azimuth": "10", "Beam Width": 40, "Length": 200 }, "geometry": { "type": "Point", "coordinates": [ 119.741, 5.02738 ] } },
{ "type": "Feature", "properties": { "SITENAME": "TUBORANDELCARSDN", "BCF-Sector": "TUBORANDELCARSDN-2", "Solution Type": "MACRO", "Site Type": "MACRO", "Blended Congestion": "RED", "Lat": 9.82122, "Lon": 126.05, "Town": "SURIGAO DEL NORTE", "Province": "DEL CARMEN", "ACL": "39", "Azimuth": "0", "Beam Width": 40, "Length": 200 }, "geometry": { "type": "Point", "coordinates": [ 126.05, 9.82122 ] } },
{ "type": "Feature", "properties": { "SITENAME": "BURIAS", "BCF-Sector": "BURIAS-3", "Solution Type": "MACRO", "Site Type": "MACRO", "Blended Congestion": "AMBER", "Lat": 5.723564, "Lon": 125.253052, "Town": "SARANGANI", "Province": "GLAN", "ACL": "45", "Azimuth": "150", "Beam Width": 40, "Length": 200 }, "geometry": { "type": "Point", "coordinates": [ 125.253052, 5.723564 ] } },
{ "type": "Feature", "properties": { "SITENAME": "GOVGE2", "BCF-Sector": "GOVGE2-1", "Solution Type": "MACRO", "Site Type": "MACRO", "Blended Congestion": "AMBER", "Lat": 6.47202, "Lon": 126.122513, "Town": "DAVAO ORIENTAL", "Province": "GOVERNOR GENEROSO", "ACL": "51", "Azimuth": "310", "Beam Width": 40, "Length": 200 }, "geometry": { "type": "Point", "coordinates": [ 126.122513, 6.47202 ] } },
{ "type": "Feature", "properties": { "SITENAME": "GOVGE2", "BCF-Sector": "GOVGE2-3", "Solution Type": "MACRO", "Site Type": "MACRO", "Blended Congestion": "RED", "Lat": 6.47202, "Lon": 126.122513, "Town": "DAVAO ORIENTAL", "Province": "GOVERNOR GENEROSO", "ACL": "51", "Azimuth": "215", "Beam Width": 40, "Length": 200 }, "geometry": { "type": "Point", "coordinates": [ 126.122513, 6.47202 ] } },
{ "type": "Feature", "properties": { "SITENAME": "ILIGA2", "BCF-Sector": "ILIGA2-3", "Solution Type": "MACRO", "Site Type": "MACRO", "Blended Congestion": "AMBER", "Lat": 8.174258, "Lon": 124.187248, "Town": "LANAO DEL NORTE", "Province": "ILIGAN CITY", "ACL": "49", "Azimuth": "260", "Beam Width": 40, "Length": 200 }, "geometry": { "type": "Point", "coordinates": [ 124.187248, 8.174258 ] } },
{ "type": "Feature", "properties": { "SITENAME": "MACO", "BCF-Sector": "MACO-3", "Solution Type": "MACRO", "Site Type": "MACRO", "Blended Congestion": "AMBER", "Lat": 7.3708, "Lon": 125.860052, "Town": "DAVAO DE ORO", "Province": "MACO", "ACL": "36", "Azimuth": "200", "Beam Width": 40, "Length": 200 }, "geometry": { "type": "Point", "coordinates": [ 125.860052, 7.3708 ] } },
{ "type": "Feature", "properties": { "SITENAME": "MUSUAN", "BCF-Sector": "MUSUAN-1", "Solution Type": "MACRO", "Site Type": "MACRO", "Blended Congestion": "GREEN", "Lat": 7.876873, "Lon": 125.06977, "Town": "BUKIDNON", "Province": "MARAMAG", "ACL": "29", "Azimuth": "40", "Beam Width": 40, "Length": 200 }, "geometry": { "type": "Point", "coordinates": [ 125.06977, 7.876873 ] } },
{ "type": "Feature", "properties": { "SITENAME": "NEWPNGISULANSKUD", "BCF-Sector": "NEWPNGISULANSKUD-3", "Solution Type": "MACRO", "Site Type": "MACRO", "Blended Congestion": "AMBER", "Lat": 6.636963, "Lon": 124.554186, "Town": "SULTAN KUDARAT", "Province": "ISULAN (CAPITAL)", "ACL": "49", "Azimuth": "210", "Beam Width": 40, "Length": 200 }, "geometry": { "type": "Point", "coordinates": [ 124.554186, 6.636963 ] } },
{ "type": "Feature", "properties": { "SITENAME": "P4HINAMGIGAQTSDN", "BCF-Sector": "P4HINAMGIGAQTSDN-1", "Solution Type": "MACRO", "Site Type": "MACRO", "Blended Congestion": "AMBER", "Lat": 9.587363, "Lon": 125.695481, "Town": "SURIGAO DEL NORTE", "Province": "GIGAQUIT", "ACL": "38", "Azimuth": "20", "Beam Width": 40, "Length": 200 }, "geometry": { "type": "Point", "coordinates": [ 125.695481, 9.587363 ] } },
{ "type": "Feature", "properties": { "SITENAME": "POBPIL", "BCF-Sector": "POBPIL-3", "Solution Type": "MACRO", "Site Type": "MACRO", "Blended Congestion": "AMBER", "Lat": 7.782107, "Lon": 122.581915, "Town": "ZAMBOANGA SIBUGAY", "Province": "IPIL (CAPITAL)", "ACL": "45", "Azimuth": "215", "Beam Width": 40, "Length": 200 }, "geometry": { "type": "Point", "coordinates": [ 122.581915, 7.782107 ] } },
{ "type": "Feature", "properties": { "SITENAME": "RJDALM", "BCF-Sector": "RJDALM-3", "Solution Type": "MACRO", "Site Type": "MACRO", "Blended Congestion": "AMBER", "Lat": 8.394167, "Lon": 122.982303, "Town": "ZAMBOANGA DEL NORTE", "Province": "JOSE DALMAN", "ACL": "40", "Azimuth": "190", "Beam Width": 40, "Length": 200 }, "geometry": { "type": "Point", "coordinates": [ 122.982303, 8.394167 ] } },
{ "type": "Feature", "properties": { "SITENAME": "SANTICARAGADVOR", "BCF-Sector": "SANTICARAGADVOR-1", "Solution Type": "MACRO", "Site Type": "MACRO", "Blended Congestion": "AMBER", "Lat": 7.27231, "Lon": 126.573685, "Town": "DAVAO ORIENTAL", "Province": "CARAGA", "ACL": "58", "Azimuth": "330", "Beam Width": 40, "Length": 200 }, "geometry": { "type": "Point", "coordinates": [ 126.573685, 7.27231 ] } },
{ "type": "Feature", "properties": { "SITENAME": "TULUNA", "BCF-Sector": "TULUNA-1", "Solution Type": "MACRO", "Site Type": "MACRO", "Blended Congestion": "AMBER", "Lat": 6.823999, "Lon": 124.883584, "Town": "COTABATO", "Province": "TULUNAN", "ACL": "49", "Azimuth": "350", "Beam Width": 40, "Length": 200 }, "geometry": { "type": "Point", "coordinates": [ 124.883584, 6.823999 ] } },
{ "type": "Feature", "properties": { "SITENAME": "KATIPU", "BCF-Sector": "KATIPU-1", "Solution Type": "MACRO", "Site Type": "MACRO", "Blended Congestion": "AMBER", "Lat": 8.511781, "Lon": 123.282338, "Town": "ZAMBOANGA DEL NORTE", "Province": "KATIPUNAN", "ACL": "49", "Azimuth": "70", "Beam Width": 40, "Length": 200 }, "geometry": { "type": "Point", "coordinates": [ 123.282338, 8.511781 ] } },
{ "type": "Feature", "properties": { "SITENAME": "LEBAK", "BCF-Sector": "LEBAK-3", "Solution Type": "MACRO", "Site Type": "MACRO", "Blended Congestion": "AMBER", "Lat": 6.639777, "Lon": 124.065964, "Town": "SULTAN KUDARAT", "Province": "LEBAK", "ACL": "49", "Azimuth": "220", "Beam Width": 40, "Length": 200 }, "geometry": { "type": "Point", "coordinates": [ 124.065964, 6.639777 ] } },
{ "type": "Feature", "properties": { "SITENAME": "LILOY", "BCF-Sector": "LILOY-1", "Solution Type": "MACRO", "Site Type": "MACRO", "Blended Congestion": "AMBER", "Lat": 8.118623, "Lon": 122.68249, "Town": "ZAMBOANGA DEL NORTE", "Province": "LILOY", "ACL": "50", "Azimuth": "40", "Beam Width": 40, "Length": 200 }, "geometry": { "type": "Point", "coordinates": [ 122.68249, 8.118623 ] } },
{ "type": "Feature", "properties": { "SITENAME": "MAIGO", "BCF-Sector": "MAIGO-2", "Solution Type": "MACRO", "Site Type": "MACRO", "Blended Congestion": "AMBER", "Lat": 8.160215, "Lon": 123.960976, "Town": "LANAO DEL NORTE", "Province": "MAIGO", "ACL": "38", "Azimuth": "230", "Beam Width": 40, "Length": 200 }, "geometry": { "type": "Point", "coordinates": [ 123.960976, 8.160215 ] } },
{ "type": "Feature", "properties": { "SITENAME": "MEDINA", "BCF-Sector": "MEDINA-2", "Solution Type": "MACRO", "Site Type": "MACRO", "Blended Congestion": "GREEN", "Lat": 8.906586, "Lon": 125.022062, "Town": "MISAMIS ORIENTAL", "Province": "MEDINA", "ACL": "33", "Azimuth": "180", "Beam Width": 40, "Length": 200 }, "geometry": { "type": "Point", "coordinates": [ 125.022062, 8.906586 ] } },
{ "type": "Feature", "properties": { "SITENAME": "MLANG", "BCF-Sector": "MLANG-1", "Solution Type": "MACRO", "Site Type": "MACRO", "Blended Congestion": "GREEN", "Lat": 6.946377, "Lon": 124.880841, "Town": "COTABATO", "Province": "M'LANG", "ACL": "38", "Azimuth": "50", "Beam Width": 40, "Length": 200 }, "geometry": { "type": "Point", "coordinates": [ 124.880841, 6.946377 ] } },
{ "type": "Feature", "properties": { "SITENAME": "PAGADI", "BCF-Sector": "PAGADI-1", "Solution Type": "MACRO", "Site Type": "MACRO", "Blended Congestion": "AMBER", "Lat": 7.841627, "Lon": 123.38244, "Town": "ZAMBOANGA DEL SUR", "Province": "PAGADIAN CITY (CAPITAL)", "ACL": "39", "Azimuth": "0", "Beam Width": 40, "Length": 200 }, "geometry": { "type": "Point", "coordinates": [ 123.38244, 7.841627 ] } },
{ "type": "Feature", "properties": { "SITENAME": "POBPANGAN", "BCF-Sector": "POBPANGAN-1", "Solution Type": "MACRO", "Site Type": "MACRO", "Blended Congestion": "AMBER", "Lat": 7.833175, "Lon": 124.824202, "Town": "BUKIDNON", "Province": "PANGANTUCAN", "ACL": "40", "Azimuth": "30", "Beam Width": 40, "Length": 200 }, "geometry": { "type": "Point", "coordinates": [ 124.824202, 7.833175 ] } },
{ "type": "Feature", "properties": { "SITENAME": "POBPANGAN", "BCF-Sector": "POBPANGAN-2", "Solution Type": "MACRO", "Site Type": "MACRO", "Blended Congestion": "GREEN", "Lat": 7.833175, "Lon": 124.824202, "Town": "BUKIDNON", "Province": "PANGANTUCAN", "ACL": "40", "Azimuth": "130", "Beam Width": 40, "Length": 200 }, "geometry": { "type": "Point", "coordinates": [ 124.824202, 7.833175 ] } },
{ "type": "Feature", "properties": { "SITENAME": "PUROK4GLUNASDN", "BCF-Sector": "PUROK4GLUNASDN-2", "Solution Type": "MACRO", "Site Type": "MACRO", "Blended Congestion": "AMBER", "Lat": 9.788192, "Lon": 126.153196, "Town": "SURIGAO DEL NORTE", "Province": "GENERAL LUNA", "ACL": "50", "Azimuth": "80", "Beam Width": 40, "Length": 200 }, "geometry": { "type": "Point", "coordinates": [ 126.153196, 9.788192 ] } },
{ "type": "Feature", "properties": { "SITENAME": "TALITAY", "BCF-Sector": "TALITAY-2", "Solution Type": "MACRO", "Site Type": "MACRO", "Blended Congestion": "RED", "Lat": 7.035857, "Lon": 124.374316, "Town": "MAGUINDANAO DEL NORTE", "Province": "TALITAY", "ACL": "40", "Azimuth": "180", "Beam Width": 40, "Length": 200 }, "geometry": { "type": "Point", "coordinates": [ 124.374316, 7.035857 ] } },
{ "type": "Feature", "properties": { "SITENAME": "TUKARLY", "BCF-Sector": "TUKARLY-2", "Solution Type": "MACRO", "Site Type": "MACRO", "Blended Congestion": "AMBER", "Lat": 5.990614, "Lon": 124.610854, "Town": "SARANGANI", "Province": "KIAMBA", "ACL": "36", "Azimuth": "60", "Beam Width": 40, "Length": 200 }, "geometry": { "type": "Point", "coordinates": [ 124.610854, 5.990614 ] } },
{ "type": "Feature", "properties": { "SITENAME": "AMABINISINDANZDN", "BCF-Sector": "AMABINISINDANZDN-2", "Solution Type": "MACRO", "Site Type": "MACRO", "Blended Congestion": "AMBER", "Lat": 8.233173, "Lon": 122.998734, "Town": "ZAMBOANGA DEL NORTE", "Province": "SINDANGAN", "ACL": "43", "Azimuth": "115", "Beam Width": 40, "Length": 200 }, "geometry": { "type": "Point", "coordinates": [ 122.998734, 8.233173 ] } },
{ "type": "Feature", "properties": { "SITENAME": "ASTURIASJOLOSULU", "BCF-Sector": "ASTURIASJOLOSULU-2", "Solution Type": "MACRO", "Site Type": "MACRO", "Blended Congestion": "AMBER", "Lat": 6.046635, "Lon": 121.004805, "Town": "SULU", "Province": "OMAR", "ACL": "20", "Azimuth": "130", "Beam Width": 40, "Length": 200 }, "geometry": { "type": "Point", "coordinates": [ 121.004805, 6.046635 ] } },
{ "type": "Feature", "properties": { "SITENAME": "BALIWASANZDS", "BCF-Sector": "BALIWASANZDS-2", "Solution Type": "MACRO", "Site Type": "MACRO", "Blended Congestion": "GREEN", "Lat": 6.916004, "Lon": 122.056362, "Town": "ZAMBOANGA DEL SUR", "Province": "ZAMBOANGA CITY", "ACL": "35", "Azimuth": "120", "Beam Width": 40, "Length": 200 }, "geometry": { "type": "Point", "coordinates": [ 122.056362, 6.916004 ] } },
{ "type": "Feature", "properties": { "SITENAME": "BALIWASANZDS", "BCF-Sector": "BALIWASANZDS-3", "Solution Type": "MACRO", "Site Type": "MACRO", "Blended Congestion": "AMBER", "Lat": 6.916004, "Lon": 122.056362, "Town": "ZAMBOANGA DEL SUR", "Province": "ZAMBOANGA CITY", "ACL": "35", "Azimuth": "240", "Beam Width": 40, "Length": 200 }, "geometry": { "type": "Point", "coordinates": [ 122.056362, 6.916004 ] } },
{ "type": "Feature", "properties": { "SITENAME": "BANISI", "BCF-Sector": "BANISI-3", "Solution Type": "MACRO", "Site Type": "MACRO", "Blended Congestion": "GREEN", "Lat": 7.509772, "Lon": 124.694218, "Town": "COTABATO", "Province": "BANISILAN", "ACL": "46", "Azimuth": "260", "Beam Width": 40, "Length": 200 }, "geometry": { "type": "Point", "coordinates": [ 124.694218, 7.509772 ] } },
{ "type": "Feature", "properties": { "SITENAME": "BAYANCALOBUTUANAGN", "BCF-Sector": "BAYANCALOBUTUANAGN-3", "Solution Type": "MACRO", "Site Type": "MACRO", "Blended Congestion": "GREEN", "Lat": 8.944953, "Lon": 125.544432, "Town": "AGUSAN DEL NORTE", "Province": "BUTUAN CITY (CAPITAL)", "ACL": "40", "Azimuth": "220", "Beam Width": 40, "Length": 200 }, "geometry": { "type": "Point", "coordinates": [ 125.544432, 8.944953 ] } },
{ "type": "Feature", "properties": { "SITENAME": "BENITEZBANGASCOT", "BCF-Sector": "BENITEZBANGASCOT-1", "Solution Type": "MACRO", "Site Type": "MACRO", "Blended Congestion": "AMBER", "Lat": 6.420238, "Lon": 124.777834, "Town": "SOUTH COTABATO", "Province": "BANGA", "ACL": "50", "Azimuth": "345", "Beam Width": 40, "Length": 200 }, "geometry": { "type": "Point", "coordinates": [ 124.777834, 6.420238 ] } },
{ "type": "Feature", "properties": { "SITENAME": "BULAWANZSIB", "BCF-Sector": "BULAWANZSIB-2", "Solution Type": "MACRO", "Site Type": "MACRO", "Blended Congestion": "GREEN", "Lat": 7.652109, "Lon": 122.821494, "Town": "ZAMBOANGA SIBUGAY", "Province": "PAYAO", "ACL": "39", "Azimuth": "125", "Beam Width": 40, "Length": 200 }, "geometry": { "type": "Point", "coordinates": [ 122.821494, 7.652109 ] } },
{ "type": "Feature", "properties": { "SITENAME": "BULAWANZSIB", "BCF-Sector": "BULAWANZSIB-3", "Solution Type": "MACRO", "Site Type": "MACRO", "Blended Congestion": "AMBER", "Lat": 7.652109, "Lon": 122.821494, "Town": "ZAMBOANGA SIBUGAY", "Province": "PAYAO", "ACL": "39", "Azimuth": "220", "Beam Width": 40, "Length": 200 }, "geometry": { "type": "Point", "coordinates": [ 122.821494, 7.652109 ] } },
{ "type": "Feature", "properties": { "SITENAME": "CMUSPCOW", "BCF-Sector": "CMUSPCOW-3", "Solution Type": "COW", "Site Type": "MACRO", "Blended Congestion": "RED", "Lat": 7.85975, "Lon": 125.0517, "Town": "BUKIDNON", "Province": "MARAMAG", "ACL": "18", "Azimuth": "240", "Beam Width": 40, "Length": 200 }, "geometry": { "type": "Point", "coordinates": [ 125.0517, 7.85975 ] } },
{ "type": "Feature", "properties": { "SITENAME": "DAKAK", "BCF-Sector": "DAKAK-1", "Solution Type": "MACRO", "Site Type": "MACRO", "Blended Congestion": "AMBER", "Lat": 8.693817, "Lon": 123.394822, "Town": "ZAMBOANGA DEL NORTE", "Province": "DAPITAN CITY", "ACL": "4", "Azimuth": "330", "Beam Width": 40, "Length": 200 }, "geometry": { "type": "Point", "coordinates": [ 123.394822, 8.693817 ] } },
{ "type": "Feature", "properties": { "SITENAME": "DELAUSMDALUMLDS", "BCF-Sector": "DELAUSMDALUMLDS-3", "Solution Type": "MACRO", "Site Type": "MACRO", "Blended Congestion": "RED", "Lat": 7.85451, "Lon": 124.1141, "Town": "LANAO DEL SUR", "Province": "MADALUM", "ACL": "49", "Azimuth": "220", "Beam Width": 40, "Length": 200 }, "geometry": { "type": "Point", "coordinates": [ 124.1141, 7.85451 ] } },
{ "type": "Feature", "properties": { "SITENAME": "DENLAGLSEBUSCOT", "BCF-Sector": "DENLAGLSEBUSCOT-1", "Solution Type": "MACRO", "Site Type": "MACRO", "Blended Congestion": "AMBER", "Lat": 6.156774, "Lon": 124.77747, "Town": "SOUTH COTABATO", "Province": "LAKE SEBU", "ACL": "49", "Azimuth": "280", "Beam Width": 40, "Length": 200 }, "geometry": { "type": "Point", "coordinates": [ 124.77747, 6.156774 ] } },
{ "type": "Feature", "properties": { "SITENAME": "DISUDSINDANZDN", "BCF-Sector": "DISUDSINDANZDN-3", "Solution Type": "MACRO", "Site Type": "MACRO", "Blended Congestion": "AMBER", "Lat": 8.247285, "Lon": 122.9995, "Town": "ZAMBOANGA DEL NORTE", "Province": "SINDANGAN", "ACL": "37", "Azimuth": "190", "Beam Width": 40, "Length": 200 }, "geometry": { "type": "Point", "coordinates": [ 122.9995, 8.247285 ] } },
{ "type": "Feature", "properties": { "SITENAME": "IMBATU", "BCF-Sector": "IMBATU-3", "Solution Type": "MACRO", "Site Type": "MACRO", "Blended Congestion": "AMBER", "Lat": 8.311129, "Lon": 124.69115, "Town": "BUKIDNON", "Province": "BAUNGON", "ACL": "45", "Azimuth": "260", "Beam Width": 40, "Length": 200 }, "geometry": { "type": "Point", "coordinates": [ 124.69115, 8.311129 ] } },
{ "type": "Feature", "properties": { "SITENAME": "INDUST", "BCF-Sector": "INDUST-2", "Solution Type": "MACRO", "Site Type": "MACRO", "Blended Congestion": "AMBER", "Lat": 6.970082, "Lon": 121.946075, "Town": "ZAMBOANGA DEL SUR", "Province": "ZAMBOANGA CITY", "ACL": "45", "Azimuth": "130", "Beam Width": 40, "Length": 200 }, "geometry": { "type": "Point", "coordinates": [ 121.946075, 6.970082 ] } },
{ "type": "Feature", "properties": { "SITENAME": "IPIL", "BCF-Sector": "IPIL-2", "Solution Type": "MACRO", "Site Type": "MACRO", "Blended Congestion": "GREEN", "Lat": 7.788609, "Lon": 122.574863, "Town": "ZAMBOANGA SIBUGAY", "Province": "IPIL (CAPITAL)", "ACL": "38", "Azimuth": "120", "Beam Width": 40, "Length": 200 }, "geometry": { "type": "Point", "coordinates": [ 122.574863, 7.788609 ] } },
{ "type": "Feature", "properties": { "SITENAME": "JOLO", "BCF-Sector": "JOLO-1", "Solution Type": "MACRO", "Site Type": "MACRO", "Blended Congestion": "AMBER", "Lat": 6.050821, "Lon": 121.001631, "Town": "SULU", "Province": "JOLO (CAPITAL)", "ACL": "38", "Azimuth": "20", "Beam Width": 40, "Length": 200 }, "geometry": { "type": "Point", "coordinates": [ 121.001631, 6.050821 ] } },
{ "type": "Feature", "properties": { "SITENAME": "KALAWAG2ISULANSKUD", "BCF-Sector": "KALAWAG2ISULANSKUD-1", "Solution Type": "MACRO", "Site Type": "MACRO", "Blended Congestion": "RED", "Lat": 6.6313, "Lon": 124.603, "Town": "SULTAN KUDARAT", "Province": "ISULAN (CAPITAL)", "ACL": "52", "Azimuth": "30", "Beam Width": 40, "Length": 200 }, "geometry": { "type": "Point", "coordinates": [ 124.603, 6.6313 ] } },
{ "type": "Feature", "properties": { "SITENAME": "KALAWAG2ISULANSKUD", "BCF-Sector": "KALAWAG2ISULANSKUD-2", "Solution Type": "MACRO", "Site Type": "MACRO", "Blended Congestion": "RED", "Lat": 6.6313, "Lon": 124.603, "Town": "SULTAN KUDARAT", "Province": "ISULAN (CAPITAL)", "ACL": "52", "Azimuth": "130", "Beam Width": 40, "Length": 200 }, "geometry": { "type": "Point", "coordinates": [ 124.603, 6.6313 ] } },
{ "type": "Feature", "properties": { "SITENAME": "KALIMBUDWA1PATKULSULU", "BCF-Sector": "KALIMBUDWA1PATKULSULU-2", "Solution Type": "MACRO", "Site Type": "MACRO", "Blended Congestion": "AMBER", "Lat": 6.043876, "Lon": 121.011334, "Town": "SULU", "Province": "PATIKUL", "ACL": "41", "Azimuth": "180", "Beam Width": 40, "Length": 200 }, "geometry": { "type": "Point", "coordinates": [ 121.011334, 6.043876 ] } },
{ "type": "Feature", "properties": { "SITENAME": "KALIMBUDWA1PATKULSULU", "BCF-Sector": "KALIMBUDWA1PATKULSULU-3", "Solution Type": "MACRO", "Site Type": "MACRO", "Blended Congestion": "AMBER", "Lat": 6.043876, "Lon": 121.011334, "Town": "SULU", "Province": "PATIKUL", "ACL": "41", "Azimuth": "250", "Beam Width": 40, "Length": 200 }, "geometry": { "type": "Point", "coordinates": [ 121.011334, 6.043876 ] } },
{ "type": "Feature", "properties": { "SITENAME": "KCC1ZAMBO", "BCF-Sector": "KCC1ZAMBO-1", "Solution Type": "IBS", "Site Type": "IBS", "Blended Congestion": "AMBER", "Lat": 6.91939, "Lon": 122.072995, "Town": "ZAMBOANGA DEL SUR", "Province": "ZAMBOANGA CITY", "ACL": "3", "Azimuth": "360", "Beam Width": 40, "Length": 40 }, "geometry": { "type": "Point", "coordinates": [ 122.072995, 6.91939 ] } },
{ "type": "Feature", "properties": { "SITENAME": "KISOLN", "BCF-Sector": "KISOLN-1", "Solution Type": "MACRO", "Site Type": "MACRO", "Blended Congestion": "AMBER", "Lat": 8.32219, "Lon": 124.974114, "Town": "BUKIDNON", "Province": "SUMILAO", "ACL": "39", "Azimuth": "10", "Beam Width": 40, "Length": 200 }, "geometry": { "type": "Point", "coordinates": [ 124.974114, 8.32219 ] } },
{ "type": "Feature", "properties": { "SITENAME": "LABUSHRFAGQKMGND", "BCF-Sector": "LABUSHRFAGQKMGND-3", "Solution Type": "MACRO", "Site Type": "MACRO", "Blended Congestion": "GREEN", "Lat": 6.847364, "Lon": 124.4527, "Town": "MAGUINDANAO DEL SUR", "Province": "SHARIFF AGUAK", "ACL": "35", "Azimuth": "280", "Beam Width": 40, "Length": 200 }, "geometry": { "type": "Point", "coordinates": [ 124.4527, 6.847364 ] } },
{ "type": "Feature", "properties": { "SITENAME": "LAFORTUNAVRUELAAGS", "BCF-Sector": "LAFORTUNAVRUELAAGS-2", "Solution Type": "MACRO", "Site Type": "MACRO", "Blended Congestion": "AMBER", "Lat": 8.026526, "Lon": 125.911373, "Town": "AGUSAN DEL SUR", "Province": "VERUELA", "ACL": "39", "Azimuth": "130", "Beam Width": 40, "Length": 200 }, "geometry": { "type": "Point", "coordinates": [ 125.911373, 8.026526 ] } },
{ "type": "Feature", "properties": { "SITENAME": "LOWLANOTE2ISBELABAS", "BCF-Sector": "LOWLANOTE2ISBELABAS-3", "Solution Type": "MACRO", "Site Type": "MACRO", "Blended Congestion": "AMBER", "Lat": 6.68814, "Lon": 121.982, "Town": "BASILAN", "Province": "ISABELA CITY", "ACL": "40", "Azimuth": "230", "Beam Width": 40, "Length": 200 }, "geometry": { "type": "Point", "coordinates": [ 121.982, 6.68814 ] } },
{ "type": "Feature", "properties": { "SITENAME": "MAGANDALAMITNBAS", "BCF-Sector": "MAGANDALAMITNBAS-2", "Solution Type": "MACRO", "Site Type": "MACRO", "Blended Congestion": "AMBER", "Lat": 6.658195, "Lon": 122.146131, "Town": "BASILAN", "Province": "LAMITAN CITY (CAPITAL)", "ACL": "39", "Azimuth": "150", "Beam Width": 40, "Length": 200 }, "geometry": { "type": "Point", "coordinates": [ 122.146131, 6.658195 ] } },
{ "type": "Feature", "properties": { "SITENAME": "MAGANDALAMITNBAS", "BCF-Sector": "MAGANDALAMITNBAS-3", "Solution Type": "MACRO", "Site Type": "MACRO", "Blended Congestion": "AMBER", "Lat": 6.658195, "Lon": 122.146131, "Town": "BASILAN", "Province": "LAMITAN CITY (CAPITAL)", "ACL": "39", "Azimuth": "240", "Beam Width": 40, "Length": 200 }, "geometry": { "type": "Point", "coordinates": [ 122.146131, 6.658195 ] } },
{ "type": "Feature", "properties": { "SITENAME": "MAGSAYPOBPLACERSDN", "BCF-Sector": "MAGSAYPOBPLACERSDN-3", "Solution Type": "MACRO", "Site Type": "MACRO", "Blended Congestion": "RED", "Lat": 9.657326, "Lon": 125.601584, "Town": "SURIGAO DEL NORTE", "Province": "PLACER", "ACL": "40", "Azimuth": "240", "Beam Width": 40, "Length": 200 }, "geometry": { "type": "Point", "coordinates": [ 125.601584, 9.657326 ] } },
{ "type": "Feature", "properties": { "SITENAME": "MALAMBUSIOCONZDN", "BCF-Sector": "MALAMBUSIOCONZDN-2", "Solution Type": "MACRO", "Site Type": "MACRO", "Blended Congestion": "RED", "Lat": 7.767472, "Lon": 122.155611, "Town": "ZAMBOANGA DEL NORTE", "Province": "BALIGUIAN", "ACL": "42", "Azimuth": "80", "Beam Width": 40, "Length": 200 }, "geometry": { "type": "Point", "coordinates": [ 122.155611, 7.767472 ] } },
{ "type": "Feature", "properties": { "SITENAME": "MAMASP", "BCF-Sector": "MAMASP-3", "Solution Type": "MACRO", "Site Type": "MACRO", "Blended Congestion": "RED", "Lat": 6.893829, "Lon": 124.499399, "Town": "MAGUINDANAO DEL SUR", "Province": "MAMASAPANO", "ACL": "36", "Azimuth": "240", "Beam Width": 40, "Length": 200 }, "geometry": { "type": "Point", "coordinates": [ 124.499399, 6.893829 ] } },
{ "type": "Feature", "properties": { "SITENAME": "MARCOSPUTIK", "BCF-Sector": "MARCOSPUTIK-2", "Solution Type": "MACRO", "Site Type": "MACRO", "Blended Congestion": "AMBER", "Lat": 6.935361, "Lon": 122.09788, "Town": "ZAMBOANGA DEL SUR", "Province": "ZAMBOANGA CITY", "ACL": "39", "Azimuth": "15", "Beam Width": 40, "Length": 200 }, "geometry": { "type": "Point", "coordinates": [ 122.09788, 6.935361 ] } },
{ "type": "Feature", "properties": { "SITENAME": "MENZISBELABAS", "BCF-Sector": "MENZISBELABAS-2", "Solution Type": "MACRO", "Site Type": "MACRO", "Blended Congestion": "GREEN", "Lat": 6.686781, "Lon": 121.969799, "Town": "BASILAN", "Province": "ISABELA CITY", "ACL": "40", "Azimuth": "200", "Beam Width": 40, "Length": 200 }, "geometry": { "type": "Point", "coordinates": [ 121.969799, 6.686781 ] } },
{ "type": "Feature", "properties": { "SITENAME": "MENZISBELABAS", "BCF-Sector": "MENZISBELABAS-3", "Solution Type": "MACRO", "Site Type": "MACRO", "Blended Congestion": "AMBER", "Lat": 6.686781, "Lon": 121.969799, "Town": "BASILAN", "Province": "ISABELA CITY", "ACL": "40", "Azimuth": "280", "Beam Width": 40, "Length": 200 }, "geometry": { "type": "Point", "coordinates": [ 121.969799, 6.686781 ] } },
{ "type": "Feature", "properties": { "SITENAME": "MONCKADMAR", "BCF-Sector": "MONCKADMAR-1", "Solution Type": "MACRO", "Site Type": "MACRO", "Blended Congestion": "AMBER", "Lat": 8.0011, "Lon": 124.3026, "Town": "LANAO DEL SUR", "Province": "MARAWI CITY (CAPITAL)", "ACL": "40", "Azimuth": "20", "Beam Width": 40, "Length": 200 }, "geometry": { "type": "Point", "coordinates": [ 124.3026, 8.0011 ] } },
{ "type": "Feature", "properties": { "SITENAME": "NORTHPOBMARAM", "BCF-Sector": "NORTHPOBMARAM-2", "Solution Type": "MACRO", "Site Type": "MACRO", "Blended Congestion": "AMBER", "Lat": 7.764702, "Lon": 125.007642, "Town": "BUKIDNON", "Province": "MARAMAG", "ACL": "40", "Azimuth": "170", "Beam Width": 40, "Length": 200 }, "geometry": { "type": "Point", "coordinates": [ 125.007642, 7.764702 ] } },
{ "type": "Feature", "properties": { "SITENAME": "PALOMOCTITAYZSIB", "BCF-Sector": "PALOMOCTITAYZSIB-3", "Solution Type": "MACRO", "Site Type": "MACRO", "Blended Congestion": "AMBER", "Lat": 7.914499, "Lon": 122.598203, "Town": "ZAMBOANGA SIBUGAY", "Province": "TITAY", "ACL": "52", "Azimuth": "270", "Beam Width": 40, "Length": 200 }, "geometry": { "type": "Point", "coordinates": [ 122.598203, 7.914499 ] } },
{ "type": "Feature", "properties": { "SITENAME": "PIKIT", "BCF-Sector": "PIKIT-1", "Solution Type": "MACRO", "Site Type": "MACRO", "Blended Congestion": "AMBER", "Lat": 7.050119, "Lon": 124.673767, "Town": "COTABATO", "Province": "PIKIT", "ACL": "49", "Azimuth": "35", "Beam Width": 40, "Length": 200 }, "geometry": { "type": "Point", "coordinates": [ 124.673767, 7.050119 ] } },
{ "type": "Feature", "properties": { "SITENAME": "PMIRAYBALIAMISOCC", "BCF-Sector": "PMIRAYBALIAMISOCC-3", "Solution Type": "MACRO", "Site Type": "MACRO", "Blended Congestion": "AMBER", "Lat": 8.667582, "Lon": 123.602, "Town": "MISAMIS OCCIDENTAL", "Province": "BALIANGAO", "ACL": "37", "Azimuth": "240", "Beam Width": 40, "Length": 200 }, "geometry": { "type": "Point", "coordinates": [ 123.602, 8.667582 ] } },
{ "type": "Feature", "properties": { "SITENAME": "POB2ISBELABAS", "BCF-Sector": "POB2ISBELABAS-1", "Solution Type": "MACRO", "Site Type": "MACRO", "Blended Congestion": "AMBER", "Lat": 6.70508, "Lon": 121.971, "Town": "BASILAN", "Province": "ISABELA CITY", "ACL": "37", "Azimuth": "350", "Beam Width": 40, "Length": 200 }, "geometry": { "type": "Point", "coordinates": [ 121.971, 6.70508 ] } },
{ "type": "Feature", "properties": { "SITENAME": "POBLANABUNDDO", "BCF-Sector": "POBLANABUNDDO-3", "Solution Type": "MACRO", "Site Type": "MACRO", "Blended Congestion": "AMBER", "Lat": 7.60262, "Lon": 125.96641, "Town": "DAVAO DE ORO", "Province": "NABUNTURAN (CAPITAL)", "ACL": "46", "Azimuth": "270", "Beam Width": 40, "Length": 200 }, "geometry": { "type": "Point", "coordinates": [ 125.96641, 7.60262 ] } },
{ "type": "Feature", "properties": { "SITENAME": "POBPARSUL", "BCF-Sector": "POBPARSUL-2", "Solution Type": "MACRO", "Site Type": "MACRO", "Blended Congestion": "RED", "Lat": 5.914717, "Lon": 120.9088, "Town": "SULU", "Province": "PARANG", "ACL": "39", "Azimuth": "170", "Beam Width": 40, "Length": 200 }, "geometry": { "type": "Point", "coordinates": [ 120.9088, 5.914717 ] } },
{ "type": "Feature", "properties": { "SITENAME": "POBPARSUL", "BCF-Sector": "POBPARSUL-3", "Solution Type": "MACRO", "Site Type": "MACRO", "Blended Congestion": "AMBER", "Lat": 5.914717, "Lon": 120.9088, "Town": "SULU", "Province": "PARANG", "ACL": "39", "Azimuth": "270", "Beam Width": 40, "Length": 200 }, "geometry": { "type": "Point", "coordinates": [ 120.9088, 5.914717 ] } },
{ "type": "Feature", "properties": { "SITENAME": "RECODO", "BCF-Sector": "RECODO-3", "Solution Type": "MACRO", "Site Type": "MACRO", "Blended Congestion": "GREEN", "Lat": 6.956912, "Lon": 121.95469, "Town": "ZAMBOANGA DEL SUR", "Province": "ZAMBOANGA CITY", "ACL": "31", "Azimuth": "300", "Beam Width": 40, "Length": 200 }, "geometry": { "type": "Point", "coordinates": [ 121.95469, 6.956912 ] } },
{ "type": "Feature", "properties": { "SITENAME": "RGLAN_D", "BCF-Sector": "RGLAN_D-5", "Solution Type": "EXTENDED SECTOR", "Site Type": "MACRO", "Blended Congestion": "RED", "Lat": 5.77451, "Lon": 125.20054, "Town": "SARANGANI", "Province": "GLAN", "ACL": "9", "Azimuth": "350", "Beam Width": 40, "Length": 200 }, "geometry": { "type": "Point", "coordinates": [ 125.20054, 5.77451 ] } },
{ "type": "Feature", "properties": { "SITENAME": "RMALIT", "BCF-Sector": "RMALIT-2", "Solution Type": "MACRO", "Site Type": "MACRO", "Blended Congestion": "AMBER", "Lat": 8.537084, "Lon": 124.8388, "Town": "BUKIDNON", "Province": "MALITBOG", "ACL": "39", "Azimuth": "100", "Beam Width": 40, "Length": 200 }, "geometry": { "type": "Point", "coordinates": [ 124.8388, 8.537084 ] } },
{ "type": "Feature", "properties": { "SITENAME": "ROSARYHT4COT", "BCF-Sector": "ROSARYHT4COT-2", "Solution Type": "MACRO", "Site Type": "MACRO", "Blended Congestion": "AMBER", "Lat": 7.212757, "Lon": 124.248006, "Town": "MAGUINDANAO DEL NORTE", "Province": "COTABATO CITY", "ACL": "39", "Azimuth": "200", "Beam Width": 40, "Length": 200 }, "geometry": { "type": "Point", "coordinates": [ 124.248006, 7.212757 ] } },
{ "type": "Feature", "properties": { "SITENAME": "SAMPOLIDIPLAZSIB", "BCF-Sector": "SAMPOLIDIPLAZSIB-2", "Solution Type": "MACRO", "Site Type": "MACRO", "Blended Congestion": "AMBER", "Lat": 7.78306, "Lon": 122.9617, "Town": "ZAMBOANGA SIBUGAY", "Province": "DIPLAHAN", "ACL": "49", "Azimuth": "140", "Beam Width": 40, "Length": 200 }, "geometry": { "type": "Point", "coordinates": [ 122.9617, 7.78306 ] } },
{ "type": "Feature", "properties": { "SITENAME": "SAMPOLIDIPLAZSIB", "BCF-Sector": "SAMPOLIDIPLAZSIB-3", "Solution Type": "MACRO", "Site Type": "MACRO", "Blended Congestion": "RED", "Lat": 7.78306, "Lon": 122.9617, "Town": "ZAMBOANGA SIBUGAY", "Province": "DIPLAHAN", "ACL": "49", "Azimuth": "240", "Beam Width": 40, "Length": 200 }, "geometry": { "type": "Point", "coordinates": [ 122.9617, 7.78306 ] } },
{ "type": "Feature", "properties": { "SITENAME": "SANISIDTLAKAGBUK", "BCF-Sector": "SANISIDTLAKAGBUK-2", "Solution Type": "MACRO", "Site Type": "MACRO", "Blended Congestion": "AMBER", "Lat": 8.262957, "Lon": 124.593089, "Town": "BUKIDNON", "Province": "TALAKAG", "ACL": "39", "Azimuth": "160", "Beam Width": 40, "Length": 200 }, "geometry": { "type": "Point", "coordinates": [ 124.593089, 8.262957 ] } },
{ "type": "Feature", "properties": { "SITENAME": "SEMIRASIRAWAIZDN", "BCF-Sector": "SEMIRASIRAWAIZDN-3", "Solution Type": "MACRO", "Site Type": "MACRO", "Blended Congestion": "AMBER", "Lat": 7.562149, "Lon": 122.236019, "Town": "ZAMBOANGA DEL NORTE", "Province": "SIRAWAI", "ACL": "50", "Azimuth": "220", "Beam Width": 40, "Length": 200 }, "geometry": { "type": "Point", "coordinates": [ 122.236019, 7.562149 ] } },
{ "type": "Feature", "properties": { "SITENAME": "SIMUAYNULINGMGDN", "BCF-Sector": "SIMUAYNULINGMGDN-1", "Solution Type": "MACRO", "Site Type": "MACRO", "Blended Congestion": "AMBER", "Lat": 7.283379, "Lon": 124.303084, "Town": "MAGUINDANAO DEL NORTE", "Province": "SULTAN KUDARAT", "ACL": "45", "Azimuth": "0", "Beam Width": 40, "Length": 200 }, "geometry": { "type": "Point", "coordinates": [ 124.303084, 7.283379 ] } },
{ "type": "Feature", "properties": { "SITENAME": "SMCSERRANVILWAOLDS", "BCF-Sector": "SMCSERRANVILWAOLDS-2", "Solution Type": "MACRO", "Site Type": "MACRO", "Blended Congestion": "AMBER", "Lat": 7.686383, "Lon": 124.73111, "Town": "LANAO DEL SUR", "Province": "WAO", "ACL": "49", "Azimuth": "155", "Beam Width": 40, "Length": 200 }, "geometry": { "type": "Point", "coordinates": [ 124.73111, 7.686383 ] } },
{ "type": "Feature", "properties": { "SITENAME": "SRAWAI", "BCF-Sector": "SRAWAI-3", "Solution Type": "MACRO", "Site Type": "MACRO", "Blended Congestion": "RED", "Lat": 7.586982, "Lon": 122.148028, "Town": "ZAMBOANGA DEL NORTE", "Province": "SIRAWAI", "ACL": "42", "Azimuth": "270", "Beam Width": 40, "Length": 200 }, "geometry": { "type": "Point", "coordinates": [ 122.148028, 7.586982 ] } },
{ "type": "Feature", "properties": { "SITENAME": "STAJOS", "BCF-Sector": "STAJOS-1", "Solution Type": "MACRO", "Site Type": "MACRO", "Blended Congestion": "AMBER", "Lat": 7.983683, "Lon": 126.028993, "Town": "AGUSAN DEL SUR", "Province": "SANTA JOSEFA", "ACL": "40", "Azimuth": "25", "Beam Width": 40, "Length": 200 }, "geometry": { "type": "Point", "coordinates": [ 126.028993, 7.983683 ] } },
{ "type": "Feature", "properties": { "SITENAME": "SYDNEYHOTEL", "BCF-Sector": "SYDNEYHOTEL-1", "Solution Type": "MACRO", "Site Type": "MACRO", "Blended Congestion": "GREEN", "Lat": 6.111232, "Lon": 125.171207, "Town": "SOUTH COTABATO", "Province": "GENERAL SANTOS CITY", "ACL": "33", "Azimuth": "55", "Beam Width": 40, "Length": 200 }, "geometry": { "type": "Point", "coordinates": [ 125.171207, 6.111232 ] } },
{ "type": "Feature", "properties": { "SITENAME": "TAGANITOCLAVERSDN", "BCF-Sector": "TAGANITOCLAVERSDN-1", "Solution Type": "MACRO", "Site Type": "MACRO", "Blended Congestion": "RED", "Lat": 9.541766, "Lon": 125.820393, "Town": "SURIGAO DEL NORTE", "Province": "CLAVER", "ACL": "40", "Azimuth": "40", "Beam Width": 40, "Length": 200 }, "geometry": { "type": "Point", "coordinates": [ 125.820393, 9.541766 ] } },
{ "type": "Feature", "properties": { "SITENAME": "TAGANITOCLAVERSDN", "BCF-Sector": "TAGANITOCLAVERSDN-2", "Solution Type": "MACRO", "Site Type": "MACRO", "Blended Congestion": "RED", "Lat": 9.541766, "Lon": 125.820393, "Town": "SURIGAO DEL NORTE", "Province": "CLAVER", "ACL": "40", "Azimuth": "120", "Beam Width": 40, "Length": 200 }, "geometry": { "type": "Point", "coordinates": [ 125.820393, 9.541766 ] } },
{ "type": "Feature", "properties": { "SITENAME": "TAGANITOCLAVERSDN", "BCF-Sector": "TAGANITOCLAVERSDN-3", "Solution Type": "MACRO", "Site Type": "MACRO", "Blended Congestion": "RED", "Lat": 9.541766, "Lon": 125.820393, "Town": "SURIGAO DEL NORTE", "Province": "CLAVER", "ACL": "40", "Azimuth": "290", "Beam Width": 40, "Length": 200 }, "geometry": { "type": "Point", "coordinates": [ 125.820393, 9.541766 ] } },
{ "type": "Feature", "properties": { "SITENAME": "TAGBAKINDANASULU", "BCF-Sector": "TAGBAKINDANASULU-3", "Solution Type": "MACRO", "Site Type": "MACRO", "Blended Congestion": "AMBER", "Lat": 6.024453, "Lon": 120.996431, "Town": "SULU", "Province": "INDANAN", "ACL": "35", "Azimuth": "220", "Beam Width": 40, "Length": 200 }, "geometry": { "type": "Point", "coordinates": [ 120.996431, 6.024453 ] } },
{ "type": "Feature", "properties": { "SITENAME": "TALON2ZDS", "BCF-Sector": "TALON2ZDS-3", "Solution Type": "MACRO", "Site Type": "MACRO", "Blended Congestion": "GREEN", "Lat": 6.910158, "Lon": 122.115745, "Town": "ZAMBOANGA DEL SUR", "Province": "ZAMBOANGA CITY", "ACL": "38", "Azimuth": "260", "Beam Width": 40, "Length": 200 }, "geometry": { "type": "Point", "coordinates": [ 122.115745, 6.910158 ] } },
{ "type": "Feature", "properties": { "SITENAME": "TAMPIL", "BCF-Sector": "TAMPIL-1", "Solution Type": "MACRO", "Site Type": "MACRO", "Blended Congestion": "AMBER", "Lat": 7.973638, "Lon": 122.664886, "Town": "ZAMBOANGA DEL NORTE", "Province": "TAMPILISAN", "ACL": "42", "Azimuth": "30", "Beam Width": 40, "Length": 200 }, "geometry": { "type": "Point", "coordinates": [ 122.664886, 7.973638 ] } },
{ "type": "Feature", "properties": { "SITENAME": "TCAGMARANDKPATAGLDN", "BCF-Sector": "TCAGMARANDKPATAGLDN-1", "Solution Type": "MACRO", "Site Type": "MACRO", "Blended Congestion": "RED", "Lat": 7.924878, "Lon": 123.768772, "Town": "LANAO DEL NORTE", "Province": "KAPATAGAN", "ACL": "24", "Azimuth": "50", "Beam Width": 40, "Length": 200 }, "geometry": { "type": "Point", "coordinates": [ 123.768772, 7.924878 ] } },
{ "type": "Feature", "properties": { "SITENAME": "TCAGMARANDKPATAGLDN", "BCF-Sector": "TCAGMARANDKPATAGLDN-2", "Solution Type": "MACRO", "Site Type": "MACRO", "Blended Congestion": "AMBER", "Lat": 7.924878, "Lon": 123.768772, "Town": "LANAO DEL NORTE", "Province": "KAPATAGAN", "ACL": "24", "Azimuth": "120", "Beam Width": 40, "Length": 200 }, "geometry": { "type": "Point", "coordinates": [ 123.768772, 7.924878 ] } },
{ "type": "Feature", "properties": { "SITENAME": "TCAGPOBLKPATAGLDN", "BCF-Sector": "TCAGPOBLKPATAGLDN-1", "Solution Type": "MACRO", "Site Type": "MACRO", "Blended Congestion": "RED", "Lat": 7.900202, "Lon": 123.77301, "Town": "LANAO DEL NORTE", "Province": "KAPATAGAN", "ACL": "24", "Azimuth": "350", "Beam Width": 40, "Length": 200 }, "geometry": { "type": "Point", "coordinates": [ 123.77301, 7.900202 ] } },
{ "type": "Feature", "properties": { "SITENAME": "TCAGPOBLKPATAGLDN", "BCF-Sector": "TCAGPOBLKPATAGLDN-2", "Solution Type": "MACRO", "Site Type": "MACRO", "Blended Congestion": "RED", "Lat": 7.900202, "Lon": 123.77301, "Town": "LANAO DEL NORTE", "Province": "KAPATAGAN", "ACL": "24", "Azimuth": "160", "Beam Width": 40, "Length": 200 }, "geometry": { "type": "Point", "coordinates": [ 123.77301, 7.900202 ] } },
{ "type": "Feature", "properties": { "SITENAME": "TCAGPOBLKPATAGLDN", "BCF-Sector": "TCAGPOBLKPATAGLDN-3", "Solution Type": "MACRO", "Site Type": "MACRO", "Blended Congestion": "AMBER", "Lat": 7.900202, "Lon": 123.77301, "Town": "LANAO DEL NORTE", "Province": "KAPATAGAN", "ACL": "24", "Azimuth": "240", "Beam Width": 40, "Length": 200 }, "geometry": { "type": "Point", "coordinates": [ 123.77301, 7.900202 ] } },
{ "type": "Feature", "properties": { "SITENAME": "TCAICBAGAKAYCLAVERSDN", "BCF-Sector": "TCAICBAGAKAYCLAVERSDN-2", "Solution Type": "MACRO", "Site Type": "MACRO", "Blended Congestion": "RED", "Lat": 9.572727, "Lon": 125.7307, "Town": "SURIGAO DEL NORTE", "Province": "CLAVER", "ACL": "35", "Azimuth": "50", "Beam Width": 40, "Length": 200 }, "geometry": { "type": "Point", "coordinates": [ 125.7307, 9.572727 ] } },
{ "type": "Feature", "properties": { "SITENAME": "TCAICBUANZINDANASULU", "BCF-Sector": "TCAICBUANZINDANASULU-3", "Solution Type": "MACRO", "Site Type": "MACRO", "Blended Congestion": "RED", "Lat": 6.039508, "Lon": 120.982689, "Town": "SULU", "Province": "INDANAN", "ACL": "29", "Azimuth": "250", "Beam Width": 40, "Length": 200 }, "geometry": { "type": "Point", "coordinates": [ 120.982689, 6.039508 ] } },
{ "type": "Feature", "properties": { "SITENAME": "TCAICBUSBUSJOLOSULU", "BCF-Sector": "TCAICBUSBUSJOLOSULU-1", "Solution Type": "MACRO", "Site Type": "MACRO", "Blended Congestion": "RED", "Lat": 6.05902, "Lon": 121.006765, "Town": "SULU", "Province": "JOLO (CAPITAL)", "ACL": "18", "Azimuth": "40", "Beam Width": 40, "Length": 200 }, "geometry": { "type": "Point", "coordinates": [ 121.006765, 6.05902 ] } },
{ "type": "Feature", "properties": { "SITENAME": "TCAICFMILLANCOTABMGDN", "BCF-Sector": "TCAICFMILLANCOTABMGDN-1", "Solution Type": "MACRO", "Site Type": "MACRO", "Blended Congestion": "AMBER", "Lat": 7.213486, "Lon": 124.242306, "Town": "MAGUINDANAO DEL NORTE", "Province": "COTABATO CITY", "ACL": "38", "Azimuth": "330", "Beam Width": 40, "Length": 200 }, "geometry": { "type": "Point", "coordinates": [ 124.242306, 7.213486 ] } },
{ "type": "Feature", "properties": { "SITENAME": "TCAICLABANGGENSANSCOT", "BCF-Sector": "TCAICLABANGGENSANSCOT-3", "Solution Type": "MACRO", "Site Type": "MACRO", "Blended Congestion": "AMBER", "Lat": 6.110724, "Lon": 125.14183, "Town": "SOUTH COTABATO", "Province": "GENERAL SANTOS CITY", "ACL": "39", "Azimuth": "185", "Beam Width": 40, "Length": 200 }, "geometry": { "type": "Point", "coordinates": [ 125.14183, 6.110724 ] } },
{ "type": "Feature", "properties": { "SITENAME": "TCAICLIPPARANGMGDN", "BCF-Sector": "TCAICLIPPARANGMGDN-1", "Solution Type": "MACRO", "Site Type": "MACRO", "Blended Congestion": "AMBER", "Lat": 7.46931, "Lon": 124.355, "Town": "MAGUINDANAO DEL NORTE", "Province": "BARIRA", "ACL": "39", "Azimuth": "340", "Beam Width": 40, "Length": 200 }, "geometry": { "type": "Point", "coordinates": [ 124.355, 7.46931 ] } },
{ "type": "Feature", "properties": { "SITENAME": "TCAICMASIGLAQUEZONBUK", "BCF-Sector": "TCAICMASIGLAQUEZONBUK-3", "Solution Type": "MACRO", "Site Type": "MACRO", "Blended Congestion": "RED", "Lat": 7.704962, "Lon": 125.114048, "Town": "BUKIDNON", "Province": "QUEZON", "ACL": "29", "Azimuth": "215", "Beam Width": 40, "Length": 200 }, "geometry": { "type": "Point", "coordinates": [ 125.114048, 7.704962 ] } },
{ "type": "Feature", "properties": { "SITENAME": "TCAICMOOREAVJOLOSULU", "BCF-Sector": "TCAICMOOREAVJOLOSULU-2", "Solution Type": "MACRO", "Site Type": "MACRO", "Blended Congestion": "AMBER", "Lat": 6.04826, "Lon": 120.997238, "Town": "SULU", "Province": "JOLO (CAPITAL)", "ACL": "20", "Azimuth": "120", "Beam Width": 40, "Length": 200 }, "geometry": { "type": "Point", "coordinates": [ 120.997238, 6.04826 ] } },
{ "type": "Feature", "properties": { "SITENAME": "TCAICP13FATIGENSANSCOT", "BCF-Sector": "TCAICP13FATIGENSANSCOT-1", "Solution Type": "MACRO", "Site Type": "MACRO", "Blended Congestion": "AMBER", "Lat": 6.660068, "Lon": 122.135186, "Town": "BASILAN", "Province": "LAMITAN CITY (CAPITAL)", "ACL": "29", "Azimuth": "60", "Beam Width": 40, "Length": 200 }, "geometry": { "type": "Point", "coordinates": [ 122.135186, 6.660068 ] } },
{ "type": "Feature", "properties": { "SITENAME": "TCAICP5BCUDMALAYBBUK", "BCF-Sector": "TCAICP5BCUDMALAYBBUK-2", "Solution Type": "MACRO", "Site Type": "MACRO", "Blended Congestion": "RED", "Lat": 8.00085, "Lon": 125.133, "Town": "BUKIDNON", "Province": "MALAYBALAY CITY (CAPITAL)", "ACL": "29", "Azimuth": "170", "Beam Width": 40, "Length": 200 }, "geometry": { "type": "Point", "coordinates": [ 125.133, 8.00085 ] } },
{ "type": "Feature", "properties": { "SITENAME": "TCAICP5NPOBMEDINAMOR", "BCF-Sector": "TCAICP5NPOBMEDINAMOR-2", "Solution Type": "MACRO", "Site Type": "MACRO", "Blended Congestion": "RED", "Lat": 8.915065, "Lon": 125.024234, "Town": "MISAMIS ORIENTAL", "Province": "MEDINA", "ACL": "39", "Azimuth": "180", "Beam Width": 40, "Length": 200 }, "geometry": { "type": "Point", "coordinates": [ 125.024234, 8.915065 ] } },
{ "type": "Feature", "properties": { "SITENAME": "TCAICPOB2MAMBAJAOCMGN", "BCF-Sector": "TCAICPOB2MAMBAJAOCMGN-2", "Solution Type": "MACRO", "Site Type": "MACRO", "Blended Congestion": "AMBER", "Lat": 9.2478, "Lon": 124.7274, "Town": "CAMIGUIN", "Province": "MAMBAJAO (CAPITAL)", "ACL": "34", "Azimuth": "140", "Beam Width": 40, "Length": 200 }, "geometry": { "type": "Point", "coordinates": [ 124.7274, 9.2478 ] } },
{ "type": "Feature", "properties": { "SITENAME": "TCAICPOBLAPNGANTBUK", "BCF-Sector": "TCAICPOBLAPNGANTBUK-1", "Solution Type": "MACRO", "Site Type": "MACRO", "Blended Congestion": "RED", "Lat": 7.830681, "Lon": 124.8343, "Town": "BUKIDNON", "Province": "PANGANTUCAN", "ACL": "29", "Azimuth": "330", "Beam Width": 40, "Length": 200 }, "geometry": { "type": "Point", "coordinates": [ 124.8343, 7.830681 ] } },
{ "type": "Feature", "properties": { "SITENAME": "TCAICPOBLAPNGANTBUK", "BCF-Sector": "TCAICPOBLAPNGANTBUK-2", "Solution Type": "MACRO", "Site Type": "MACRO", "Blended Congestion": "RED", "Lat": 7.830681, "Lon": 124.8343, "Town": "BUKIDNON", "Province": "PANGANTUCAN", "ACL": "29", "Azimuth": "210", "Beam Width": 40, "Length": 200 }, "geometry": { "type": "Point", "coordinates": [ 124.8343, 7.830681 ] } },
{ "type": "Feature", "properties": { "SITENAME": "TCAICPOBLAPNGANTBUK", "BCF-Sector": "TCAICPOBLAPNGANTBUK-3", "Solution Type": "MACRO", "Site Type": "MACRO", "Blended Congestion": "RED", "Lat": 7.830681, "Lon": 124.8343, "Town": "BUKIDNON", "Province": "PANGANTUCAN", "ACL": "29", "Azimuth": "280", "Beam Width": 40, "Length": 200 }, "geometry": { "type": "Point", "coordinates": [ 124.8343, 7.830681 ] } },
{ "type": "Feature", "properties": { "SITENAME": "TCAICPOBMAMBAJAOCMGN", "BCF-Sector": "TCAICPOBMAMBAJAOCMGN-1", "Solution Type": "MACRO", "Site Type": "MACRO", "Blended Congestion": "RED", "Lat": 9.251113, "Lon": 124.719394, "Town": "CAMIGUIN", "Province": "MAMBAJAO (CAPITAL)", "ACL": "29", "Azimuth": "310", "Beam Width": 40, "Length": 200 }, "geometry": { "type": "Point", "coordinates": [ 124.719394, 9.251113 ] } },
{ "type": "Feature", "properties": { "SITENAME": "TCAICPOBPOLOMOSCOT", "BCF-Sector": "TCAICPOBPOLOMOSCOT-2", "Solution Type": "MACRO", "Site Type": "MACRO", "Blended Congestion": "RED", "Lat": 6.223272, "Lon": 125.061678, "Town": "SOUTH COTABATO", "Province": "POLOMOLOK", "ACL": "38", "Azimuth": "110", "Beam Width": 40, "Length": 200 }, "geometry": { "type": "Point", "coordinates": [ 125.061678, 6.223272 ] } },
{ "type": "Feature", "properties": { "SITENAME": "TCAICPOBPOLOMOSCOT", "BCF-Sector": "TCAICPOBPOLOMOSCOT-3", "Solution Type": "MACRO", "Site Type": "MACRO", "Blended Congestion": "RED", "Lat": 6.223272, "Lon": 125.061678, "Town": "SOUTH COTABATO", "Province": "POLOMOLOK", "ACL": "38", "Azimuth": "230", "Beam Width": 40, "Length": 200 }, "geometry": { "type": "Point", "coordinates": [ 125.061678, 6.223272 ] } },
{ "type": "Feature", "properties": { "SITENAME": "TCAICROSARYHTS5COTABMGDN", "BCF-Sector": "TCAICROSARYHTS5COTABMGDN-3", "Solution Type": "MACRO", "Site Type": "MACRO", "Blended Congestion": "AMBER", "Lat": 7.208806, "Lon": 124.254595, "Town": "MAGUINDANAO DEL NORTE", "Province": "COTABATO CITY", "ACL": "44", "Azimuth": "260", "Beam Width": 40, "Length": 200 }, "geometry": { "type": "Point", "coordinates": [ 124.254595, 7.208806 ] } },
{ "type": "Feature", "properties": { "SITENAME": "TCAICSANNICOLSRAWAIZDN", "BCF-Sector": "TCAICSANNICOLSRAWAIZDN-2", "Solution Type": "MACRO", "Site Type": "MACRO", "Blended Congestion": "RED", "Lat": 7.588353, "Lon": 122.138869, "Town": "ZAMBOANGA DEL NORTE", "Province": "SIRAWAI", "ACL": "39", "Azimuth": "120", "Beam Width": 40, "Length": 200 }, "geometry": { "type": "Point", "coordinates": [ 122.138869, 7.588353 ] } },
{ "type": "Feature", "properties": { "SITENAME": "TCAICSNJUANSNJOSEDNGT", "BCF-Sector": "TCAICSNJUANSNJOSEDNGT-1", "Solution Type": "MACRO", "Site Type": "MACRO", "Blended Congestion": "RED", "Lat": 10.011538, "Lon": 125.572577, "Town": "DINAGAT ISLANDS", "Province": "SAN JOSE (CAPITAL)", "ACL": "39", "Azimuth": "10", "Beam Width": 40, "Length": 200 }, "geometry": { "type": "Point", "coordinates": [ 125.572577, 10.011538 ] } },
{ "type": "Feature", "properties": { "SITENAME": "TCAICSNJUANSNJOSEDNGT", "BCF-Sector": "TCAICSNJUANSNJOSEDNGT-3", "Solution Type": "MACRO", "Site Type": "MACRO", "Blended Congestion": "AMBER", "Lat": 10.011538, "Lon": 125.572577, "Town": "DINAGAT ISLANDS", "Province": "SAN JOSE (CAPITAL)", "ACL": "39", "Azimuth": "220", "Beam Width": 40, "Length": 200 }, "geometry": { "type": "Point", "coordinates": [ 125.572577, 10.011538 ] } },
{ "type": "Feature", "properties": { "SITENAME": "TCAICSTACRUZSNJOSEDNGT", "BCF-Sector": "TCAICSTACRUZSNJOSEDNGT-2", "Solution Type": "MACRO", "Site Type": "MACRO", "Blended Congestion": "RED", "Lat": 10.02074, "Lon": 125.5774, "Town": "DINAGAT ISLANDS", "Province": "SAN JOSE (CAPITAL)", "ACL": "49", "Azimuth": "180", "Beam Width": 40, "Length": 200 }, "geometry": { "type": "Point", "coordinates": [ 125.5774, 10.02074 ] } },
{ "type": "Feature", "properties": { "SITENAME": "TCAICSTAMARIAZAMBOAZDS", "BCF-Sector": "TCAICSTAMARIAZAMBOAZDS-3", "Solution Type": "MACRO", "Site Type": "MACRO", "Blended Congestion": "AMBER", "Lat": 6.9306, "Lon": 122.066183, "Town": "ZAMBOANGA DEL SUR", "Province": "ZAMBOANGA CITY", "ACL": "35", "Azimuth": "250", "Beam Width": 40, "Length": 200 }, "geometry": { "type": "Point", "coordinates": [ 122.066183, 6.9306 ] } },
{ "type": "Feature", "properties": { "SITENAME": "TCAICSTFILDPOLOGZDN", "BCF-Sector": "TCAICSTFILDPOLOGZDN-1", "Solution Type": "MACRO", "Site Type": "MACRO", "Blended Congestion": "RED", "Lat": 8.57171, "Lon": 123.339816, "Town": "ZAMBOANGA DEL NORTE", "Province": "DIPOLOG CITY (CAPITAL)", "ACL": "35", "Azimuth": "350", "Beam Width": 40, "Length": 200 }, "geometry": { "type": "Point", "coordinates": [ 123.339816, 8.57171 ] } },
{ "type": "Feature", "properties": { "SITENAME": "TCAICUWAKBRGY1DAPASDN", "BCF-Sector": "TCAICUWAKBRGY1DAPASDN-3", "Solution Type": "MACRO", "Site Type": "MACRO", "Blended Congestion": "RED", "Lat": 9.755495, "Lon": 126.055723, "Town": "SURIGAO DEL NORTE", "Province": "DAPA", "ACL": "39", "Azimuth": "270", "Beam Width": 40, "Length": 200 }, "geometry": { "type": "Point", "coordinates": [ 126.055723, 9.755495 ] } },
{ "type": "Feature", "properties": { "SITENAME": "TCEDCSTACRUZKBASALZSIB", "BCF-Sector": "TCEDCSTACRUZKBASALZSIB-2", "Solution Type": "MACRO", "Site Type": "MACRO", "Blended Congestion": "RED", "Lat": 7.794868, "Lon": 122.763468, "Town": "ZAMBOANGA SIBUGAY", "Province": "KABASALAN", "ACL": "29", "Azimuth": "100", "Beam Width": 40, "Length": 200 }, "geometry": { "type": "Point", "coordinates": [ 122.763468, 7.794868 ] } },
{ "type": "Feature", "properties": { "SITENAME": "TCEDCSTACRUZKBASALZSIB", "BCF-Sector": "TCEDCSTACRUZKBASALZSIB-3", "Solution Type": "MACRO", "Site Type": "MACRO", "Blended Congestion": "RED", "Lat": 7.794868, "Lon": 122.763468, "Town": "ZAMBOANGA SIBUGAY", "Province": "KABASALAN", "ACL": "29", "Azimuth": "210", "Beam Width": 40, "Length": 200 }, "geometry": { "type": "Point", "coordinates": [ 122.763468, 7.794868 ] } },
{ "type": "Feature", "properties": { "SITENAME": "TCFGAAGUSANCDOMOR", "BCF-Sector": "TCFGAAGUSANCDOMOR-1", "Solution Type": "MACRO", "Site Type": "MACRO", "Blended Congestion": "AMBER", "Lat": 8.48397, "Lon": 124.738889, "Town": "MISAMIS ORIENTAL", "Province": "CAGAYAN DE ORO CITY (CAPITAL)", "ACL": "29", "Azimuth": "330", "Beam Width": 40, "Length": 200 }, "geometry": { "type": "Point", "coordinates": [ 124.738889, 8.48397 ] } },
{ "type": "Feature", "properties": { "SITENAME": "TCFGAARASCAGWITSDS", "BCF-Sector": "TCFGAARASCAGWITSDS-3", "Solution Type": "MACRO", "Site Type": "MACRO", "Blended Congestion": "AMBER", "Lat": 8.888627, "Lon": 126.308732, "Town": "SURIGAO DEL SUR", "Province": "CAGWAIT", "ACL": "32", "Azimuth": "320", "Beam Width": 40, "Length": 200 }, "geometry": { "type": "Point", "coordinates": [ 126.308732, 8.888627 ] } },
{ "type": "Feature", "properties": { "SITENAME": "TCFGABASIAWNSMARIADVOC", "BCF-Sector": "TCFGABASIAWNSMARIADVOC-1", "Solution Type": "MACRO", "Site Type": "MACRO", "Blended Congestion": "GREEN", "Lat": 6.508026, "Lon": 125.513936, "Town": "DAVAO OCCIDENTAL", "Province": "SANTA MARIA", "ACL": "33", "Azimuth": "60", "Beam Width": 40, "Length": 200 }, "geometry": { "type": "Point", "coordinates": [ 125.513936, 6.508026 ] } },
{ "type": "Feature", "properties": { "SITENAME": "TCFGABRGY07MALAYBBUK", "BCF-Sector": "TCFGABRGY07MALAYBBUK-2", "Solution Type": "MACRO", "Site Type": "MACRO", "Blended Congestion": "RED", "Lat": 8.150986, "Lon": 125.13158, "Town": "BUKIDNON", "Province": "MALAYBALAY CITY (CAPITAL)", "ACL": "25", "Azimuth": "60", "Beam Width": 40, "Length": 200 }, "geometry": { "type": "Point", "coordinates": [ 125.13158, 8.150986 ] } },
{ "type": "Feature", "properties": { "SITENAME": "TCFGABRGYPOB5MIDSAYNCOT", "BCF-Sector": "TCFGABRGYPOB5MIDSAYNCOT-1", "Solution Type": "MACRO", "Site Type": "MACRO", "Blended Congestion": "RED", "Lat": 7.1977, "Lon": 124.5366, "Town": "COTABATO", "Province": "MIDSAYAP", "ACL": "29", "Azimuth": "30", "Beam Width": 40, "Length": 200 }, "geometry": { "type": "Point", "coordinates": [ 124.5366, 7.1977 ] } },
{ "type": "Feature", "properties": { "SITENAME": "TCFGABRGYPOB5MIDSAYNCOT", "BCF-Sector": "TCFGABRGYPOB5MIDSAYNCOT-2", "Solution Type": "MACRO", "Site Type": "MACRO", "Blended Congestion": "RED", "Lat": 7.1977, "Lon": 124.5366, "Town": "COTABATO", "Province": "MIDSAYAP", "ACL": "29", "Azimuth": "150", "Beam Width": 40, "Length": 200 }, "geometry": { "type": "Point", "coordinates": [ 124.5366, 7.1977 ] } },
{ "type": "Feature", "properties": { "SITENAME": "TCFGABRGYPOBBAROBOSDS", "BCF-Sector": "TCFGABRGYPOBBAROBOSDS-2", "Solution Type": "MACRO", "Site Type": "MACRO", "Blended Congestion": "RED", "Lat": 8.539341, "Lon": 126.119894, "Town": "SURIGAO DEL SUR", "Province": "BAROBO", "ACL": "29", "Azimuth": "165", "Beam Width": 40, "Length": 200 }, "geometry": { "type": "Point", "coordinates": [ 126.119894, 8.539341 ] } },
{ "type": "Feature", "properties": { "SITENAME": "TCFGACALAPLUPONDVOR", "BCF-Sector": "TCFGACALAPLUPONDVOR-1", "Solution Type": "MACRO", "Site Type": "MACRO", "Blended Congestion": "AMBER", "Lat": 7.11522, "Lon": 126.174, "Town": "DAVAO ORIENTAL", "Province": "LUPON", "ACL": "29", "Azimuth": "5", "Beam Width": 40, "Length": 200 }, "geometry": { "type": "Point", "coordinates": [ 126.174, 7.11522 ] } },
{ "type": "Feature", "properties": { "SITENAME": "TCFGACBNGAHN1MALAYBBUK", "BCF-Sector": "TCFGACBNGAHN1MALAYBBUK-3", "Solution Type": "MACRO", "Site Type": "MACRO", "Blended Congestion": "GREEN", "Lat": 8.008333, "Lon": 125.133503, "Town": "BUKIDNON", "Province": "MALAYBALAY CITY (CAPITAL)", "ACL": "43", "Azimuth": "200", "Beam Width": 40, "Length": 200 }, "geometry": { "type": "Point", "coordinates": [ 125.133503, 8.008333 ] } },
{ "type": "Feature", "properties": { "SITENAME": "TCFGACENTRASURALLSCOT", "BCF-Sector": "TCFGACENTRASURALLSCOT-3", "Solution Type": "MACRO", "Site Type": "MACRO", "Blended Congestion": "AMBER", "Lat": 6.357108, "Lon": 124.75581, "Town": "SOUTH COTABATO", "Province": "SURALLAH", "ACL": "39", "Azimuth": "230", "Beam Width": 40, "Length": 200 }, "geometry": { "type": "Point", "coordinates": [ 124.75581, 6.357108 ] } },